name,cls,latitude,longitude,city_cn,city_en,city_type,iso2,country_cn,country_en,note
"Aasiaat, Greenland",Aasiaat,68.707,-52.8591,埃格瑟斯明讷,Aasiaat,5,GL,格陵兰,Greenland,
"Aberdeen, United Kingdom",Aberdeen,57.1538,-2.10681,阿伯丁,Aberdeen,5,GB,英国,United Kingdom,
"Abidjan, Côte d'Ivoire",Abidjan,5.3235,-4.02625,阿比让,Abidjan,5,CI,科特迪瓦,Côte d'Ivoire,
"Abu Dhabi, United Arab Emirates",Abu Dhabi,24.444,54.419,阿布扎比,Abu Dhabi,5,AE,阿联酋,United Arab Emirates,
"Accra, Ghana",Accra,5.5585,-0.200915,阿克拉,Accra,5,GH,加纳,Ghana,
"Aeng Batu Batu, Indonesia",Aeng Batu Batu,-5.34326,119.385,戈瓦县,Gowa Regency,2,ID,印度尼西亚,Indonesia,
"Aetos, Greece",Aetos,39.683,20.021,菲利阿泰斯,Filiates,4,GR,希腊,Greece,
"Agat, Guam",Agat,13.3853,144.658,阿加特,Agat,5,GU,关岛,Guam,
"Agats, Indonesia",Agats,-5.53563,138.121,阿斯马特县,Asmat Regency,2,ID,印度尼西亚,Indonesia,
"Aguadilla, PR, United States",Aguadilla,18.4275,-67.1549,阿瓜迪亚,Aguadilla Pueblo,5,PR,波多黎各,Puerto Rico,
"Aguimes, Canary Islands, Spain",Aguimes,27.8955,-15.3907,阿圭梅斯,Agüimes,5,ES,西班牙,Spain,
"Aikerness Bay, United Kingdom",Aikerness Bay,59.118,-3.09508,伊维,Evie,5,GB,英国,United Kingdom,auto translate
"Ajaccio, France",Ajaccio,41.9171,8.73298,阿雅克肖,Ajaccio,5,FR,法国,France,
"Ajigaura, Japan",Ajigaura,36.3836,140.612,常陆那珂市,Hitachinaka,5,JP,日本,Japan,
"Akita, Japan",Akita,39.692,140.344,秋田市,Akita,5,JP,日本,Japan,
"Akutan, AK, United States",Akutan,54.1356,-165.773,阿库坦,Akutan,5,US,美国,United States,
"Al Bayda, Libya",Al Bayda,32.8817,21.7417,贝达,Al Bayda,5,LY,利比亚,Libyan Arab Jamahiriya,auto translate
"Al Bustan, Oman",Al Bustan,23.5761,58.6061,马斯喀特,Muscat,5,OM,阿曼,Oman,
"Al Faw, Iraq",Al Faw,29.9237,48.5318,法奥,Al-Faw,5,IQ,伊拉克,Iraq,auto translate
"Al Ghaydah, Yemen",Al Ghaydah,16.2104,52.1824,盖达,Al Ghaydah,5,YE,也门,Yemen,auto translate
"Al Hidd, Bahrain",Al Hidd,26.2416,50.6562,艾希迪,Al Hidd,5,BH,巴林,Bahrain,
"Al Hudaydah, Yemen",Al Hudaydah,14.6856,43.0085,荷台达,Al Hudaydah,5,YE,也门,Yemen,
"Al-Kheesa, Qatar",Al-Kheesa,25.2943,51.5194,多哈,Doha,5,QA,卡塔尔,Qatar,
"Al Khobar, Saudi Arabia",Al Khobar,26.2866,50.2143,胡拜尔,Al Khobar,5,SA,沙特阿拉伯,Saudi Arabia,
"Al Khums, Libya",Al Khums,32.6497,14.2644,胡姆斯,Khoms,5,LY,利比亚,Libyan Arab Jamahiriya,auto translate
"Al Safat, Kuwait",Al Safat,29.3699,47.9765,科威特城,Kuwait City,5,KW,科威特,Kuwait,
"Al Seeb, Oman",Al Seeb,23.6847,58.1761,锡卜,Seeb,5,OM,阿曼,Oman,
"Aldeburgh, United Kingdom",Aldeburgh,52.1578,1.5906,奥尔德堡,Aldeburgh,5,GB,英国,United Kingdom,
"Alexandria, Egypt",Alexandria,31.1919,29.8898,亚历山大,Alexandria,5,EG,埃及,Egypt,
"Alexandria, NSW, Australia",Alexandria,-33.9137,151.196,亚历山德里亚,Australia,5,AU,澳大利亚,Australia,
"Algiers, Algeria",Algiers,36.7657,3.03189,比阿尔,El Biar,5,DZ,阿尔及利亚,Algeria,
"Allen, Philippines",Allen,12.5014,124.282,艾伦,Allen,5,PH,菲律宾,Philippines,auto translate
"Almería, Spain",Almería,36.8419,-2.46379,阿尔梅里亚,Almería,5,ES,西班牙,Spain,
"Alor, Indonesia",Alor,-8.32065,124.404,阿洛县,Alor Regency,2,ID,印度尼西亚,Indonesia,
"Alotau, Papua New Guinea",Alotau,-10.3157,150.459,阿洛陶,Alotau,5,PG,巴布亚新几内亚,Papua New Guinea,
"Alta Vista, Canary Islands, Spain",Alta Vista,27.9995,-15.7,坎德拉里亚,Candelaria,5,ES,西班牙,Spain,
"Alupang, Guam",Alupang,13.49,144.777,塔穆宁,Tamuning,5,GU,关岛,Guam,
"Amanzimtoti, South Africa",Amanzimtoti,-30.0577,30.8804,阿曼济姆托蒂,Amanzimtoti,5,ZA,南非,South Africa,
"Ambon, Indonesia",Ambon,-3.65538,128.191,安汶,Kota Ambon,5,ID,印度尼西亚,Indonesia,
"Amderma, Russia",Amderma,69.7512,61.6637,阿姆杰尔马,Amderma,5,RU,俄罗斯,Russian Federation,
"Amwaj Island, Bahrain",Amwaj Island,26.229,50.5758,麦纳麦,Manama,5,BH,巴林,Bahrain,
"Anadyr, Russia",Anadyr,64.7272,177.502,阿纳德尔,Anadyr,5,RU,俄罗斯,Russian Federation,
"Anchorage, AK, United States",Anchorage,61.2175,-149.858,安克雷奇,Anchorage,5,US,美国,United States,
"Ancol, Indonesia",Ancol,-6.12901,106.833,雅加达,Jakarta,5,ID,印度尼西亚,Indonesia,
"Ancon, Ecuador",Ancon,-2.32981,-80.8559,安孔,Ancón,5,EC,厄瓜多尔,Ecuador,
"Andalsnes, Norway",Andalsnes,62.5658,7.68158,翁达尔斯内斯,Åndalsnes,5,NO,挪威,Norway,
"Angoon, AK, United States",Angoon,57.5018,-134.582,安贡,Angoon,5,US,美国,United States,
"Angra do Heroismo, Portugal",Angra do Heroismo,38.6585,-27.2158,英雄港,Angra do Heroísmo,5,PT,葡萄牙,Portugal,
"Annaba, Algeria",Annaba,36.9023,7.75544,安纳巴,Annaba,5,DZ,阿尔及利亚,Algeria,
"Antofagasta, Chile",Antofagasta,-23.65,-70.4,安托法加斯塔,Antofagasta,5,CL,智利,Chile,
"Anyer, Indonesia",Anyer,-6.07369,105.884,西冷,Kabupaten Serang,2,ID,印度尼西亚,Indonesia,auto translate
"Apia, Samoa",Apia,-13.8334,-171.767,阿皮亚,Apia,5,WS,萨摩亚,Samoa,
"Aqaba, Jordan",Aqaba,29.581,35.0051,亚喀巴,Aqaba,5,JO,约旦,Jordan,
"Aracaju, Brazil",Aracaju,-10.9096,-37.0748,阿拉卡茹,Aracaju,5,BR,巴西,Brazil,
"Arawa, Papua New Guinea",Arawa,-6.22563,155.568,阿拉瓦,Arawa,5,PG,巴布亚新几内亚,Papua New Guinea,
"Ardbeg Point, United Kingdom",Ardbeg Point,55.8586,-5.06359,阿德贝格,Rothesay,5,GB,英国,United Kingdom,auto translate
"Ardgour, United Kingdom",Ardgour,56.7216,-5.23366,阿德高尔,Corran,5,GB,英国,United Kingdom,
"Ardmair, United Kingdom",Ardmair,57.9341,-5.19621,阿德迈尔,Ardmair,5,GB,英国,United Kingdom,
"Ardnacross, United Kingdom",Ardnacross,55.4765,-5.53342,坎贝尔敦,Campbelltown,6,GB,英国,United Kingdom,
"Ardvasar, United Kingdom",Ardvasar,57.0594,-5.90646,阿德瓦瑟,Ardvasar,5,GB,英国,United Kingdom,
"Arendal, Norway",Arendal,58.47,8.75867,阿伦达尔,Arendal,5,NO,挪威,Norway,
"Arica, Chile",Arica,-18.4734,-70.3067,阿里卡,Arica,5,CL,智利,Chile,
"Arrecife, Canary Islands, Spain",Arrecife,28.9595,-13.5476,阿雷西费,Arrecife,5,ES,西班牙,Spain,
"Asilah, Morocco",Asilah,35.4708,-6.03576,艾西拉,Asilah,5,MA,摩洛哥,Morocco,
"Atafona, Brazil",Atafona,-21.6312,-41.0272,圣若昂－达巴拉,São João da Barra,5,BR,巴西,Brazil,
"Athens, Greece",Athens,37.9761,23.7363,雅典,Athens,5,GR,希腊,Greece,
"Auckland, New Zealand",Auckland,-36.8842,174.77,奥克兰,Auckland,5,NZ,新西兰,New Zealand,
"Auki, Solomon Islands",Auki,-8.77465,160.701,奥基,Auki,5,SB,所罗门群岛,Solomon Islands,auto translate
"Aylesford, NS, Canada",Aylesford,45.0895,-64.9483,莫登,Morden,5,CA,加拿大,Canada,
"Ayre of Cara, United Kingdom",Ayre of Cara,58.8333,-2.90012,格里姆岬,Grimness,5,GB,英国,United Kingdom,
"Baa, Indonesia",Baa,-10.7333,123.035,罗地-恩道县,Rote Ndao Regency,2,ID,印度尼西亚,Indonesia,
"Baby Beach, Aruba",Baby Beach,12.4141,-69.8787,圣尼古拉斯,San Nicolas,5,AW,阿鲁巴,Aruba,
"Baclayon, Philippines",Baclayon,9.62256,123.914,巴克拉永,Baclayon,5,PH,菲律宾,Philippines,
"Bacolod, Philippines",Bacolod,10.6407,122.969,巴科洛德,Bacolod,5,PH,菲律宾,Philippines,
"Bacong, Philippines",Bacong,9.24633,123.295,巴孔,Bacong,5,PH,菲律宾,Philippines,
"Bahar ic-Caghaq, Malta",Bahar ic-Caghaq,35.9341,14.4588,纳沙尔,Naxxar,5,MT,马耳他,Malta,
"Baie-Comeau, QC, Canada",Baie-Comeau,49.221,-68.1525,贝科莫,Baie-Comeau,5,CA,加拿大,Canada,
"Baie Jacotet, Mauritius",Baie Jacotet,-20.474,57.4854,沙穆尼,Chamouny,5,MU,毛里求斯,Mauritius,
"Baie Longue, Saint Martin",Baie Longue,18.0597,-63.1457,马里戈特,Marigot,5,MF,法属圣马丁,Saint Martin (French part),
"Baie-Mahault, Guadeloupe",Baie-Mahault,16.2445,-61.5717,拜马欧,Baie-Mahault,5,GP,瓜德罗普,Guadeloupe,
"Bairiki, Kiribati",Bairiki,1.3291,172.979,南塔拉瓦,South Tarawa,5,KI,基里巴斯,Kiribati,
"Balboa, Panama",Balboa,8.95003,-79.5667,巴拿马城,Pennsylvania,5,PA,巴拿马,Panama,
"Balchik, Bulgaria",Balchik,43.4143,28.1674,巴尔奇克,Balchik,5,BG,保加利亚,Bulgaria,
"Baler, Philippines",Baler,15.7615,121.56,巴莱尔,Baler,5,PH,菲律宾,Philippines,
"Bali, Indonesia",Bali,-8.46441,115.597,卡朗阿森,Kabupaten Karangasem,2,ID,印度尼西亚,Indonesia,auto translate
"Balikpapan, Indonesia",Balikpapan,-1.26537,116.831,巴厘巴板,Balikpapan,5,ID,印度尼西亚,Indonesia,
"Ballesteros, Philippines",Ballesteros,18.4094,121.514,巴列斯特罗斯,Ballesteros,5,PH,菲律宾,Philippines,
"Balluta Bay, Malta",Balluta Bay,35.9341,14.38,圣保罗湾城,St. Paul's Bay,5,MT,马耳他,Malta,
"Ballyhornan, United Kingdom",Ballyhornan,54.302,-5.55939,唐帕特里克,Downpatrick,6,GB,英国,United Kingdom,
"Ballywater, United Kingdom",Ballywater,54.5427,-5.48439,巴利沃尔特,Ballywalter,5,GB,英国,United Kingdom,
"Banana Bay, Virgin Islands (U.S.)",Banana Bay,18.3282,-64.9438,夏洛特阿马利亚,Charlotte Amalie,5,VI,美属维尔京群岛,Virgin Islands (U.S.),
"Bandaneria, Indonesia",Bandaneria,-4.52018,129.872,中马鲁古县,Central Maluku Regency,2,ID,印度尼西亚,Indonesia,
"Bandar Abbas, Iran",Bandar Abbas,27.1872,56.2743,阿巴斯港,Bandar Abbas,5,IR,伊朗,Iran,
"Bandar Bukit Tinggi, Malaysia",Bandar Bukit Tinggi,3.00928,101.437,巴生港,Port Klang,5,MY,马来西亚,Malaysia,
"Bandar Lampung, Indonesia",Bandar Lampung,-5.40929,105.254,班达楠榜,Bandar Lampung City,5,ID,印度尼西亚,Indonesia,
"Bandon, OR, United States",Bandon,43.1186,-124.408,班登,Bandon,5,US,美国,United States,
"Banff, United Kingdom",Banff,57.6669,-2.52365,班夫,Banff,5,GB,英国,United Kingdom,
"Bangga, Indonesia",Bangga,-1.60028,123.528,邦盖海县,Banggai Laut Regency,2,ID,印度尼西亚,Indonesia,
"Banjarmasin, Indonesia",Banjarmasin,-3.32796,114.604,马辰,Banjarmasin,5,ID,印度尼西亚,Indonesia,
"Banjul, Gambia",Banjul,13.4559,-16.5814,班珠尔,Banjul,5,GM,冈比亚,Gambia,
"Banyu Urip, Indonesia",Banyu Urip,-7.2719,112.72,苏腊巴亚,Surabaya,5,ID,印度尼西亚,Indonesia,
"Barcelona, Spain",Barcelona,41.3856,2.16876,巴塞罗那,Barcelona,5,ES,西班牙,Spain,
"Bari, Italy",Bari,41.1255,16.8667,巴里,Bari,5,IT,意大利,Italy,
"Barranquilla, Colombia",Barranquilla,10.9404,-74.7798,巴兰基亚,Barranquilla,5,CO,哥伦比亚,Colombia,
"Barsebäck, Sweden",Barsebäck,55.7704,12.9554,巴舍拜克,Barsebäck,5,SE,瑞典,Sweden,
"Bastia, France",Bastia,42.6973,9.45088,巴斯蒂亚,Bastia,5,FR,法国,France,
"Bata, Equatorial Guinea",Bata,1.86007,9.76823,巴塔,Bata,5,GQ,赤道几内亚,Equatorial Guinea,auto translate
"Batam, Indonesia",Batam,1.0668,104.017,巴淡岛,Batam,5,ID,印度尼西亚,Indonesia,
"Batangas, Philippines",Batangas,13.7658,121.065,八打雁,Batangas,5,PH,菲律宾,Philippines,
"Batu Prahu, Indonesia",Batu Prahu,-3.07992,106.547,都保里,Toboali,3,ID,印度尼西亚,Indonesia,
"Baturaja, Indonesia",Baturaja,-5.04032,103.839,巴都拉惹,Baturaja,4,ID,印度尼西亚,Indonesia,
"Bauang, Philippines",Bauang,16.514,120.356,巴旺,Bauang,5,PH,菲律宾,Philippines,
"Baubau, Indonesia",Baubau,-5.50706,122.597,巴务巴务市,Baubau,2,ID,印度尼西亚,Indonesia,
"Bawean, Indonesia",Bawean,-5.79349,112.586,锦石,Gresik,2,ID,印度尼西亚,Indonesia,
"Baxedes, Greece",Baxedes,36.4774,25.4023,锡拉,Thera,4,GR,希腊,Greece,
"Beculuk, Indonesia",Beculuk,-8.61563,114.097,外南梦,Banyuwangi,2,ID,印度尼西亚,Indonesia,
"Beihai, China",Beihai,21.4845,109.105,北海市,Beihai,5,CN,中国,China,
"Beirut, Lebanon",Beirut,33.8927,35.4852,贝鲁特,Beirut,5,LB,黎巴嫩,Lebanon,
"Bejaia, Algeria",Bejaia,36.7515,5.05568,贝贾亚,Béjaïa,5,DZ,阿尔及利亚,Algeria,
"Belize City, Belize",Belize City,17.4955,-88.1816,伯利兹,Belize District,5,BZ,伯利兹,Belize,
"Bella Bella, BC, Canada",Bella Bella,52.1611,-128.145,贝拉贝拉,Bella Bella,5,CA,加拿大,Canada,
"Bella Coola, BC, Canada",Bella Coola,52.3721,-126.753,贝拉库拉,Bella Coola,5,CA,加拿大,Canada,
"Bellport, NY, United States",Bellport,40.7555,-72.9378,贝尔波特,Bellport,5,US,美国,United States,
"Belmont, United Kingdom",Belmont,60.6874,-0.96681,贝尔蒙特,Belmont,5,GB,英国,United Kingdom,
"Benghazi, Libya",Benghazi,32.1166,20.0668,班加西,Benghazi,5,LY,利比亚,Libyan Arab Jamahiriya,
"Bengkalis, Indonesia",Bengkalis,1.4892,102.08,望加丽,Bengkalis,2,ID,印度尼西亚,Indonesia,
"Bequia, Saint Vincent and the Grenadines",Bequia,12.9976,-61.2447,伊丽莎白港,Port Elizabeth,5,VC,圣文森特和格林纳丁斯,Saint Vincent and the Grenadines,
"Berbera, Somalia",Berbera,10.4351,45.0109,柏培拉,Berbera,5,SO,索马里,Somalia,
"Bergen, Norway",Bergen,60.3907,5.33275,卑尔根,Bergen,5,NO,挪威,Norway,
"Beverwijk, Netherlands",Beverwijk,52.4863,4.65691,贝弗韦克,Beverwijk,5,NL,荷兰,Netherlands,
"Biak, Indonesia",Biak,-1.16347,136.053,比亚克农福尔县,Biak Numfor Regency,2,ID,印度尼西亚,Indonesia,
"Bic, QC, Canada",Bic,48.3728,-68.7093,里穆斯基,Rimouski,5,CA,加拿大,Canada,
"Bilbao, Spain",Bilbao,43.2683,-2.94616,毕尔巴鄂,Bilbao,5,ES,西班牙,Spain,
"Bima, Indonesia",Bima,-8.46427,118.745,比马,Bima,5,ID,印度尼西亚,Indonesia,
"Bintulu, Malaysia",Bintulu,3.197,113.068,民都鲁,Bintulu,5,MY,马来西亚,Malaysia,
"Bizerte, Tunisia",Bizerte,37.2768,9.86732,比塞大,Tennessee,5,TN,突尼斯,Tunisia,
"Blaabjerg, Denmark",Blaabjerg,55.7517,8.32919,北内伯尔,Norre Nebel,5,DK,丹麦,Denmark,
"Black River, Jamaica",Black River,18.0237,-77.8484,布莱克里弗,Black River,5,JM,牙买加,Jamaica,
"Blackpool, United Kingdom",Blackpool,53.8087,-3.05075,黑潭,Blackpool,5,GB,英国,United Kingdom,
"Bliss Landing, BC, Canada",Bliss Landing,50.0358,-124.816,鲍威尔里弗,Powell River,5,CA,加拿大,Canada,
"Bluefields, Nicaragua",Bluefields,11.9918,-83.7715,布卢菲尔兹,Bluefields,5,NI,尼加拉瓜,Nicaragua,
"Boac, Philippines",Boac,13.4291,121.885,波克,Boac,5,PH,菲律宾,Philippines,auto translate
"Boat Bluff, BC, Canada",Boat Bluff,52.643,-128.524,克莱姆图,Klemtu,5,CA,加拿大,Canada,
"Boca Raton, FL, United States",Boca Raton,26.3505,-80.0889,博卡拉顿,Boca Raton,5,US,美国,United States,
"Bodø, Norway",Bodø,67.286,14.4001,博德,Bodø,5,NO,挪威,Norway,
"Bogo, Philippines",Bogo,11.0459,124.008,博戈,Bogo City,5,PH,菲律宾,Philippines,
"Bold Point, BC, Canada",Bold Point,50.1724,-125.161,坎贝尔里弗,Campbell River,5,CA,加拿大,Canada,
"Boracay, Philippines",Boracay,11.9492,121.945,马莱,Malay,5,PH,菲律宾,Philippines,
"Bosaso, Somalia",Bosaso,11.2756,49.1879,博萨索,Bosaso,5,SO,索马里,Somalia,
"Bozyazi, Turkey",Bozyazi,36.1,32.9667,博兹亚泽,Bozyazı,2,TR,土耳其,Turkey,
"Brean, United Kingdom",Brean,51.2937,-3.01091,布里安,Brean,5,GB,英国,United Kingdom,
"Bredene, Belgium",Bredene,51.2464,2.96189,布雷德讷,Bredene,5,BE,比利时,Belgium,
"Brega, Libya",Brega,30.3781,19.5765,卜雷加港,Marsa al Brega,5,LY,利比亚,Libyan Arab Jamahiriya,
"Brekstad, Norway",Brekstad,63.6884,9.66311,布雷克斯塔,Brekstad,5,NO,挪威,Norway,
"Bridgetown, Barbados",Bridgetown,13.099,-59.6134,布里奇顿,Bridgetown,5,BB,巴巴多斯,Barbados,auto translate
"Brighton, United Kingdom",Brighton,50.8285,-0.134435,布赖顿,Brighton,6,GB,英国,United Kingdom,
"Brisbane, QLD, Australia",Brisbane,-27.4689,153.023,布里斯班,Brisbane,5,AU,澳大利亚,Australia,
"Brønnøysund, Norway",Brønnøysund,65.4736,12.2077,布伦讷于松,Brønnøysund,5,NO,挪威,Norway,
"Broadstairs, United Kingdom",Broadstairs,51.3589,1.43943,布罗德斯泰斯,Broadstairs,5,GB,英国,United Kingdom,
"Brookhaven, NY, United States",Brookhaven,40.7731,-72.9123,布鲁克黑文,Brookhaven,5,US,美国,United States,
"Brookvale, NSW, Australia",Brookvale,-33.7612,151.274,布鲁克韦尔,Brookvale,5,AU,澳大利亚,Australia,
"Budai, Taiwan",Budai,23.3628,120.17,嘉义县,Chiayi County,2,TW,中国台湾,Taiwan,
"Bude, United Kingdom",Bude,50.8282,-4.5444,比尤德,Bude,5,GB,英国,United Kingdom,
"Buenaventura, Colombia",Buenaventura,3.88367,-77.0403,布埃纳文图拉,Buena Vista,5,CO,哥伦比亚,Colombia,
"Buenavista, Philippines",Buenavista,8.96892,125.421,布埃纳维斯塔,Buenavista,5,PH,菲律宾,Philippines,
"Buffalo, NY, United States",Buffalo,42.8854,-78.8785,布法罗,Buffalo,5,US,美国,United States,
"Bulan, Philippines",Bulan,12.6837,123.896,布兰,Bulan,5,PH,菲律宾,Philippines,auto translate
"Bull Bay, Jamaica",Bull Bay,17.9497,-76.6667,布尔贝,Bull Bay,5,JM,牙买加,Jamaica,
"Bulobulo, Indonesia",Bulobulo,-5.66907,119.809,哲内蓬托,Jeneponto Regency,2,ID,印度尼西亚,Indonesia,
"Bunkeflostand, Sweden",Bunkeflostand,55.5568,12.9187,玛尔摩,Malmö,5,SE,瑞典,Sweden,
"Buranga, Indonesia",Buranga,-4.79227,122.856,穆纳县,Muna Regency,2,ID,印度尼西亚,Indonesia,
"Burgau, Portugal",Burgau,37.0734,-8.77454,布尔高,Burgau,5,PT,葡萄牙,Portugal,
"Burravoe, United Kingdom",Burravoe,60.4994,-1.05559,巴勒沃,Burravoe,5,GB,英国,United Kingdom,
"Bushehr, Iran",Bushehr,28.97,50.8427,布什尔,Bushehr,5,IR,伊朗,Iran,
"Butedale, BC, Canada",Butedale,53.1498,-128.701,比特代尔,Butedale,5,CA,加拿大,Canada,
"Butterworth, Malaysia",Butterworth,5.42086,100.373,北海,Beihai,5,MY,马来西亚,Malaysia,
"Butuan City, Philippines",Butuan City,8.94754,125.541,布湍,Butuan City,5,PH,菲律宾,Philippines,
"Cabimas, Venezuela",Cabimas,10.396,-71.4511,卡维马斯,Cabimas,5,VE,委内瑞拉,Venezuela,
"Cabinda, Angola",Cabinda,-5.55655,12.1898,卡宾达,Cabinda,5,AO,安哥拉,Angola,
"Cacongo, Angola",Cacongo,-5.23097,12.1409,兰达纳,Landana,5,AO,安哥拉,Angola,
"Cacuaco, Angola",Cacuaco,-8.77668,13.3723,卡夸科,Cacuaco,5,AO,安哥拉,Angola,
"Cadiz City, Philippines",Cadiz City,10.95,123.3,加的斯,Cadiz City,5,PH,菲律宾,Philippines,
"Cagayan de Oro, Philippines",Cagayan de Oro,8.45424,124.632,卡加延－德奥罗,Cagayan de Oro,5,PH,菲律宾,Philippines,
"Cagliari, Italy",Cagliari,39.2153,9.10935,卡利亚里,Cagliari,5,IT,意大利,Italy,
"Cala d'Oliva, Italy",Cala d'Oliva,41.0817,8.33611,奥利瓦湾,Cala d'Oliva,5,IT,意大利,Italy,
"Calatrava, Philippines",Calatrava,12.603,122.082,卡拉特拉瓦,Calatrava,5,PH,菲律宾,Philippines,
"Calbayog, Philippines",Calbayog,12.0699,124.6,甲描育,Calbayog City,5,PH,菲律宾,Philippines,
"Caldera, Chile",Caldera,-27.062,-70.8124,卡尔德拉,Caldera,5,CL,智利,Chile,
"Calgary, United Kingdom",Calgary,56.5821,-6.27238,卡尔加里,Calgary,5,GB,英国,United Kingdom,
"Callantsoog, Netherlands",Callantsoog,52.8369,4.70076,卡兰茨奥赫,Callantsoog,5,NL,荷兰,Netherlands,
"Camiguin Island, Philippines",Camiguin Island,9.17253,124.729,萨盖,Sagay,5,PH,菲律宾,Philippines,
"Campbell River, BC, Canada",Campbell River,50.0246,-125.248,坎贝尔里弗,Campbell River,5,CA,加拿大,Canada,
"Camuri, Venezuela",Camuri,10.6065,-66.8782,马库托,Macuto,5,VE,委内瑞拉,Venezuela,
"Cancún, Mexico",Cancún,21.0957,-86.7676,坎昆,Cancún,5,MX,墨西哥,Mexico,
"Candelaria, Canary Islands, Spain",Candelaria,28.3555,-16.3717,坎德拉里亚,Candelaria,5,ES,西班牙,Spain,
"Candi Kusuma, Indonesia",Candi Kusuma,-8.29458,114.527,珍布拉娜县,Jembrana Regency,2,ID,印度尼西亚,Indonesia,
"Canefield, Dominica",Canefield,15.3033,-61.3848,罗索,Roseau,5,DM,多米尼克,Dominica,auto translate
"Cannes, France",Cannes,43.5529,7.01735,戛纳,Cannes,5,FR,法国,France,
"Cape D’Aguilar, China",Cape D’Aguilar,22.208,114.26,香港,Hong Kong,5,HK,中国香港,Hong Kong,
"Cape Ray, NL, Canada",Cape Ray,47.6367,-59.2847,开普雷,Cape Ray,5,CA,加拿大,Canada,
"Cape Roger Curtis, BC, Canada",Cape Roger Curtis,49.3433,-123.429,鲍恩岛,Bowen Island,5,CA,加拿大,Canada,
"Car Nicobar, India",Car Nicobar,9.17749,92.8164,加格纳,Kakana,5,IN,印度,India,
"Carana, Seychelles",Carana,-4.56575,55.453,马卡贝,Machabee,5,SC,塞舌尔,Seychelles,
"Carcavelos, Portugal",Carcavelos,38.6888,-9.33791,卡尔卡韦卢什,Carcavelos,5,PT,葡萄牙,Portugal,
"Carloforte, Italy",Carloforte,39.1455,8.30268,卡洛福泰,Carloforte,5,IT,意大利,Italy,
"Carúpano, Venezuela",Carúpano,10.6668,-63.2505,卡鲁帕诺,Carupano,5,VE,委内瑞拉,Venezuela,
"Carrickfergus, United Kingdom",Carrickfergus,54.7137,-5.80817,卡里克弗格斯,Carrickfergus,5,GB,英国,United Kingdom,
"Cartagena, Chile",Cartagena,-33.5469,-71.6001,卡塔赫纳,Cartagena,5,CL,智利,Chile,
"Cartagena, Colombia",Cartagena,10.387,-75.5057,喀他赫纳,Cartagena,5,CO,哥伦比亚,Colombia,
"Casablanca, Morocco",Casablanca,33.6054,-7.63194,卡萨布兰卡,Casablanca,5,MA,摩洛哥,Morocco,
"Catania, Italy",Catania,37.5116,15.0674,卡塔尼亚,Catania,5,IT,意大利,Italy,
"Caticlan, Philippines",Caticlan,11.9309,121.951,马莱,Malay,5,PH,菲律宾,Philippines,
"Caves Point, Bahamas",Caves Point,25.0685,-77.453,拿骚,Nassau,5,BS,巴哈马,Bahamas,
"Cavite, Philippines",Cavite,14.2863,120.82,奈克,Naic,5,PH,菲律宾,Philippines,
"Cayenne, French Guiana",Cayenne,4.92242,-52.3135,卡宴,Cayenne,5,GF,法属圭亚那,French Guiana,
"Cayeux-sur-Mer, France",Cayeux-sur-Mer,50.1788,1.49343,滨海卡约,Cayeux-sur-Mer,5,FR,法国,France,
"Cebu, Philippines",Cebu,10.31,123.895,宿务,Cebu City,5,PH,菲律宾,Philippines,
"Chabahar, Iran",Chabahar,25.2982,60.6296,哈赫巴哈尔,Chah Bahar,5,IR,伊朗,Iran,
"Changi North, Singapore",Changi North,1.38904,103.987,新加坡,Singapore,5,SG,新加坡,Singapore,
"Changi South, Singapore",Changi South,1.38904,103.987,新加坡,Singapore,5,SG,新加坡,Singapore,
"Chania, Greece",Chania,35.512,24.0122,干尼亚,Chania,5,GR,希腊,Greece,
"Charlestown, RI, United States",Charlestown,41.4119,-71.6459,查尔斯敦,Charlestown,5,US,美国,United States,
"Chateaubelair, Saint Vincent and the Grenadines",Chateaubelair,13.2909,-61.2408,沙托布莱尔,Chateaubelair,5,VC,圣文森特和格林纳丁斯,Saint Vincent and the Grenadines,
"Chenega, AK, United States",Chenega,60.0651,-148.011,切尼加,Chenega,5,US,美国,United States,
"Chennai, India",Chennai,13.0639,80.243,钦奈,Chennai,5,IN,印度,India,
"Chichiriviche, Venezuela",Chichiriviche,10.9286,-68.2845,奇奇里维切,Chichiriviche,5,VE,委内瑞拉,Venezuela,
"Chignik Bay, AK, United States",Chignik Bay,56.2945,-158.409,奇格尼克,Chignik,5,US,美国,United States,
"Chignik Lagoon, AK, United States",Chignik Lagoon,56.3214,-158.507,奇格尼克潟湖,Chignik Lagoon,5,US,美国,United States,
"Chignik Lake, AK, United States",Chignik Lake,56.255,-158.772,奇格尼克湖,Chignik Lake,5,US,美国,United States,
"Chikura, Japan",Chikura,34.9705,139.961,南房总市,Minamiboso,5,JP,日本,Japan,
"Chipiona, Spain",Chipiona,36.7313,-6.42888,奇皮奥纳,Chipiona,5,ES,西班牙,Spain,
"Chisasibi, QC, Canada",Chisasibi,53.7736,-78.8935,乔治堡,Castel Giorgio,5,CA,加拿大,Canada,
"Chongming, China",Chongming,31.6199,121.395,上海市,Shanghai,5,CN,中国,China,
"Christchurch, New Zealand",Christchurch,-43.5321,172.636,基督城,Christchurch,5,NZ,新西兰,New Zealand,
"Christiansted, Virgin Islands, Virgin Islands (U.S.)",Christiansted,17.7467,-64.7031,克里斯琴斯特德,Christiansted,5,VI,美属维尔京群岛,Virgin Islands (U.S.),
"Chung Hom Kok, China",Chung Hom Kok,22.2221,114.203,香港,Hong Kong,5,HK,中国香港,Hong Kong,
"Cienfuegos, Cuba",Cienfuegos,22.146,-80.449,西恩富戈斯,Cienfuegos,5,CU,古巴,Cuba,
"Cirebon, Indonesia",Cirebon,-6.71667,108.567,井里汶,Cirebon,5,ID,印度尼西亚,Indonesia,
"Ciudad Lázaro Cárdenas, Mexico",Ciudad Lázaro Cárdenas,17.9568,-102.194,拉萨罗－卡德纳斯,Lázaro Cárdenas,5,MX,墨西哥,Mexico,
"Civitavecchia, Italy",Civitavecchia,42.0911,11.7968,奇维塔韦基亚,Civitavecchia,5,IT,意大利,Italy,
"Clarence Town, Bahamas",Clarence Town,23.0983,-74.9662,克拉伦斯镇,Clarence Town,5,BS,巴哈马,Bahamas,
"Clonshaugh, Ireland",Clonshaugh,53.4101,-6.19792,都柏林,Dublin,5,IE,爱尔兰,Ireland,
"Cloverdale, OR, United States",Cloverdale,45.2311,-123.956,太平洋城,Pacific,5,US,美国,United States,
"Cochin, India",Cochin,9.93838,76.2695,柯钦,Kochi,5,IN,印度,India,
"Cockburn Town, Bahamas",Cockburn Town,24.0525,-74.5302,科克本城,Cockburn Town,5,BS,巴哈马,Bahamas,
"Codroy, NL, Canada",Codroy,47.8816,-59.3919,科德罗伊,California,5,CA,加拿大,Canada,
"Coffman Cove, AK, United States",Coffman Cove,56.0152,-132.83,科夫曼湾,Coffman Cove,5,US,美国,United States,
"Cold Bay, AK, United States",Cold Bay,55.2041,-162.704,冷湾,Cold Bay,5,US,美国,United States,
"Coleraine, United Kingdom",Coleraine,55.1307,-6.67619,科尔雷恩,Coleraine,5,GB,英国,United Kingdom,
"Collo, Algeria",Collo,37.003,6.55724,科洛,Collo,5,DZ,阿尔及利亚,Algeria,
"Colombo, Sri Lanka",Colombo,6.92673,79.872,科伦坡,Colombo,5,LK,斯里兰卡,Sri Lanka,
"Colon, Panama",Colon,9.35372,-79.9,科隆,Pennsylvania,5,PA,巴拿马,Panama,
"Comox, BC, Canada",Comox,49.6735,-124.928,科莫克斯,Comox,5,CA,加拿大,Canada,
"Conakry, Guinea",Conakry,9.51362,-13.7038,科纳克里,Conakry,5,GN,几内亚,Guinea,
"Condado Beach, PR, United States",Condado Beach,18.4599,-66.078,圣胡安,San Juan,5,PR,波多黎各,Puerto Rico,
"Conil, Spain",Conil,36.2766,-6.08723,科尼尔德拉夫龙特拉,Conil de la Frontera,5,ES,西班牙,Spain,
"Constitución, Chile",Constitución,-35.3184,-72.4161,孔斯蒂图西翁,Constitución,5,CL,智利,Chile,
"Cordova, AK, United States",Cordova,60.5427,-145.755,科尔多瓦,Cordova,5,US,美国,United States,
"Corfu, Greece",Corfu,39.6193,19.9195,克基拉,Corfu,5,GR,希腊,Greece,
"Cork, Ireland",Cork,51.8983,-8.47277,科克,Cork,5,IE,爱尔兰,Ireland,auto translate
"Coro, Venezuela",Coro,11.4028,-69.6778,科罗,Coro,5,VE,委内瑞拉,Venezuela,auto translate
"Coron, Philippines",Coron,12.005,120.201,科伦,Coron,5,PH,菲律宾,Philippines,
"Corran, United Kingdom",Corran,56.7225,-5.24538,阿德高尔,Corran,5,GB,英国,United Kingdom,
"Corrie, United Kingdom",Corrie,55.6437,-5.14143,科里,Corrie,5,GB,英国,United Kingdom,auto translate
"Corvo, Portugal",Corvo,39.6719,-31.1105,科尔武镇,Vila do Corvo,5,PT,葡萄牙,Portugal,
"Cotonou, Benin",Cotonou,6.35658,2.43992,科托努,Cotonou,5,BJ,贝宁,Benin,
"Cousins Inlet, BC, Canada",Cousins Inlet,52.2679,-127.791,欧申福尔斯,Ocean Falls,7,CA,加拿大,Canada,
"Cox’s Bazar, Bangladesh",Cox’s Bazar,21.4292,91.9949,科克斯巴扎尔,Cox's Bazar,5,BD,孟加拉国,Bangladesh,
"Craighouse, United Kingdom",Craighouse,55.8337,-5.95383,克雷格豪斯,Craighouse,5,GB,英国,United Kingdom,
"Cristóbal, Ecuador",Cristóbal,9.35085,-79.9028,科隆,Pennsylvania,5,PA,巴拿马,Panama,
"Crockness, United Kingdom",Crockness,58.8227,-3.17202,利内斯,Lyness,5,GB,英国,United Kingdom,
"Crotone, Italy",Crotone,39.0807,17.1271,克罗托内,Crotone,5,IT,意大利,Italy,
"Cumaná, Venezuela",Cumaná,10.4543,-64.1821,库马纳,Cumana,5,VE,委内瑞拉,Venezuela,
"Daanbantayan, Philippines",Daanbantayan,11.2465,124.017,达安班塔延,Daanbantayan,5,PH,菲律宾,Philippines,
"Daet, Philippines",Daet,14.1166,122.95,达特,Daet,5,PH,菲律宾,Philippines,
"Dakar, Senegal",Dakar,14.6867,-17.4519,达喀尔,Dakar,5,SN,塞内加尔,Senegal,
"Dakhla, Morocco",Dakhla,23.7211,-15.9344,达赫拉,Dakhla,5,MA,摩洛哥,Morocco,
"Dalian, China",Dalian,38.9438,121.577,大连市,Dalian,5,CN,中国,China,
"Danang, Vietnam",Danang,16.0516,108.215,岘港,Da Nang,5,VN,越南,Viet Nam,
"Dania Beach, FL, United States",Dania Beach,26.0523,-80.1439,戴尼亚,Dania Beach,5,US,美国,United States,
"Dar Es Salaam, Tanzania",Dar Es Salaam,-6.823,39.2697,达累斯萨拉姆,Dar es Salaam,5,TZ,坦桑尼亚,Tanzania,
"Dartmouth, United Kingdom",Dartmouth,50.3517,-3.57839,达特茅斯,Hanover,5,GB,英国,United Kingdom,
"Daru, Papua New Guinea",Daru,-9.07818,143.21,达鲁,Daru,5,PG,巴布亚新几内亚,Papua New Guinea,auto translate
"Darwin, NT, Australia",Darwin,-12.4675,130.843,达尔文,Darwin,5,AU,澳大利亚,Australia,
"Davao, Philippines",Davao,7.07996,125.613,达沃,Davao City,5,PH,菲律宾,Philippines,
"Deep Water Bay, China",Deep Water Bay,22.2494,114.184,香港,Hong Kong,5,HK,中国香港,Hong Kong,
"Deeside Clwyd, United Kingdom",Deeside Clwyd,53.2017,-3.02756,迪赛德,Deeside,5,GB,英国,United Kingdom,
"Denpasar, Indonesia",Denpasar,-8.65666,115.222,登巴萨,Denpasar,5,ID,印度尼西亚,Indonesia,
"Derna, Libya",Derna,32.7636,22.6392,德尔纳,Derna,5,LY,利比亚,Libyan Arab Jamahiriya,
"Dikson, Russia",Dikson,73.5077,80.531,迪克森,Dikson,5,RU,俄罗斯,Russian Federation,auto translate
"Dili, Timor-Leste",Dili,-8.57069,125.581,帝力,Dili,5,TL,东帝汶,Timor-Leste,
"Dipolog City, Philippines",Dipolog City,8.5641,123.335,第波罗,Dipolog City,5,PH,菲律宾,Philippines,
"Djibouti City, Djibouti",Djibouti City,11.5987,43.1458,吉布提,Djibouti,5,DJ,吉布提,Djibouti,
"Dodge Cove, BC, Canada",Dodge Cove,54.2878,-130.388,爱德华港,Port Edward,5,CA,加拿大,Canada,
"Doha, Qatar",Doha,25.2945,51.5194,多哈,Doha,5,QA,卡塔尔,Qatar,
"Domburg, Netherlands",Domburg,51.564,3.49617,栋堡,Domburg,5,NL,荷兰,Netherlands,
"Donaghadee, United Kingdom",Donaghadee,54.6428,-5.53875,多纳哈迪,Donaghadee,5,GB,英国,United Kingdom,
"Douala, Cameroon",Douala,4.04715,9.70632,杜阿拉,Douala,5,CM,喀麦隆,Cameroon,
"Douglas, Isle of Man",Douglas,54.1503,-4.48088,道格拉斯,Douglas,5,IM,马恩岛,Isle of Man,auto translate
"Down Craig, United Kingdom",Down Craig,55.7802,-4.90046,米尔波特,Millport,5,GB,英国,United Kingdom,
"Dragor, Denmark",Dragor,55.5935,12.6702,德拉厄,Dragør,5,DK,丹麦,Denmark,
"Dryad Point, BC, Canada",Dryad Point,52.1852,-128.112,贝拉贝拉,Bella Bella,5,CA,加拿大,Canada,
"Duart Bay, United Kingdom",Duart Bay,56.4558,-5.66936,克雷格纽尔,Craignure,5,GB,英国,United Kingdom,
"Duba, Saudi Arabia",Duba,27.354,35.6965,杜巴,Duba,5,SA,沙特阿拉伯,Saudi Arabia,auto translate
"Dubai, United Arab Emirates",Dubai,25.2693,55.3084,杜拜,Dubai,5,AE,阿联酋,United Arab Emirates,
"Dublin, Ireland",Dublin,53.348,-6.24826,都柏林,Dublin,5,IE,爱尔兰,Ireland,
"Dubrovnik, Croatia",Dubrovnik,42.6419,18.1064,杜布罗夫尼克,Dubrovnik,5,HR,克罗地亚,Croatia,
"Dumaguete, Philippines",Dumaguete,9.29555,123.281,杜马格特,Dumaguete,5,PH,菲律宾,Philippines,
"Dumai, Indonesia",Dumai,1.66561,101.448,杜迈,Dumai,5,ID,印度尼西亚,Indonesia,
"Dumpton Gap, United Kingdom",Dumpton Gap,51.3586,1.43933,布罗德斯泰斯,Broadstairs,5,GB,英国,United Kingdom,
"Duncan Town, Bahamas",Duncan Town,22.1833,-75.7335,邓肯镇,Duncan Town,5,BS,巴哈马,Bahamas,
"Dunedin, New Zealand",Dunedin,-45.8788,170.503,达尼丁,Dunedin,5,NZ,新西兰,New Zealand,
"Dunnet Bay, United Kingdom",Dunnet Bay,58.6153,-3.34621,邓尼特,Dunnet,5,GB,英国,United Kingdom,
"Dunnet Head, United Kingdom",Dunnet Head,58.6703,-3.37658,布拉夫,Brough,5,GB,英国,United Kingdom,
"Dunvegan, United Kingdom",Dunvegan,57.4363,-6.58166,邓韦根,Dunvegan,5,GB,英国,United Kingdom,
"Durres, Albania",Durres,41.3167,19.4501,都拉斯,Durrës,5,AL,阿尔巴尼亚,Albania,
"Duynefontein, South Africa",Duynefontein,-33.6933,18.4499,开普敦,Cape Town,5,ZA,南非,South Africa,
"Egersund, Norway",Egersund,58.4241,5.98871,埃格尔松,Egersund,5,NO,挪威,Norway,
"El Djamila, Algeria",El Djamila,36.8002,2.90144,艾因拜尼延,Aïn Benian,5,DZ,阿尔及利亚,Algeria,
"El Goro, Canary Islands, Spain",El Goro,27.9594,-15.3987,特尔德,Telde,5,ES,西班牙,Spain,
"El Médano, Canary Islands, Spain",El Médano,28.0467,-16.5386,埃尔梅达诺,El Médano,5,ES,西班牙,Spain,auto translate
"El-Quawef, Libya",El-Quawef,31.7608,25.0874,巴迪亚,Badia,5,LY,利比亚,Libyan Arab Jamahiriya,
"El Segundo, CA, United States",El Segundo,33.9199,-118.416,埃尔塞贡多,El Segundo,5,US,美国,United States,
"Emi, Japan",Emi,35.0624,140.061,鸭川市,Kamogawa,5,JP,日本,Japan,
"Ende, Indonesia",Ende,-8.8457,121.643,英德,Yingde,2,ID,印度尼西亚,Indonesia,
"Endrup, Denmark",Endrup,55.5231,8.71839,布拉明,Bramming,5,DK,丹麦,Denmark,
"Ermoupoli, Greece",Ermoupoli,37.4395,24.9393,埃尔穆波利斯,Ermoupoli,5,GR,希腊,Greece,
"Espoo, Finland",Espoo,60.2068,24.6558,艾斯堡,Espoo,5,FI,芬兰,Finland,
"Estepona, Spain",Estepona,36.4271,-5.14587,埃斯特波纳,Estepona,5,ES,西班牙,Spain,
"Eureka, CA, United States",Eureka,40.8033,-124.16,尤里卡,Eureka,5,US,美国,United States,
"Evie, United Kingdom",Evie,59.1135,-3.10837,伊维,Evie,5,GB,英国,United Kingdom,auto translate
"Faial, Portugal",Faial,38.5251,-28.6476,奥尔塔,Horta,5,PT,葡萄牙,Portugal,auto translate
"Fakfak, Indonesia",Fakfak,-3.09777,133.019,法克法克,Fakfak,2,ID,印度尼西亚,Indonesia,
"False Pass, AK, United States",False Pass,54.8509,-163.415,福尔斯帕斯,False Pass,5,US,美国,United States,
"Fangshan, Taiwan",Fangshan,22.2492,120.662,屏东,Pingtung City,2,TW,中国台湾,Taiwan,
"Fano, Denmark",Fano,55.4485,8.40695,凡岛,Fanø,5,DK,丹麦,Denmark,
"Farsund, Norway",Farsund,58.0828,6.7528,法尔松,Farsund,5,NO,挪威,Norway,
"Feolin Ferry, United Kingdom",Feolin Ferry,55.8467,-6.08991,克雷格豪斯,Craighouse,5,GB,英国,United Kingdom,
"Filizi, Greece",Filizi,37.1253,25.2897,帕罗斯,Paros,4,GR,希腊,Greece,
"Fionnaphort, United Kingdom",Fionnaphort,56.323,-6.36808,菲昂福特,Fionnphort,5,GB,英国,United Kingdom,
"Fish Camp, AK, United States",Fish Camp,59.9492,-154.859,农多尔顿,Nondalton,5,US,美国,United States,
"Florø, Norway",Florø,61.5963,4.97585,弗卢勒,Florø,5,NO,挪威,Norway,
"Florence, OR, United States",Florence,43.9821,-124.1,弗洛伦斯,Florence,5,US,美国,United States,
"Flores, Portugal",Flores,39.4622,-31.1285,圣克鲁什－达什弗洛里什,Santa Cruz das Flores,5,PT,葡萄牙,Portugal,
"Fomboni Moheli, Comoros",Fomboni Moheli,-12.2882,43.7396,丰博尼,Fomboni,5,KM,科摩罗,Comoros,
"Forestville, QC, Canada",Forestville,48.7394,-69.0836,福里斯特维尔,Forestville,5,CA,加拿大,Canada,
"Fort Amador, Panama",Fort Amador,8.93411,-79.5467,巴拿马城,Pennsylvania,5,PA,巴拿马,Panama,
"Fort Dauphin, Madagascar",Fort Dauphin,-25.0225,46.9854,陶拉纳鲁,Taolagnaro,5,MG,马达加斯加,Madagascar,
"Fortaleza, Brazil",Fortaleza,-3.71883,-38.543,福塔雷萨,Fortaleza,5,BR,巴西,Brazil,
"Fortune, NL, Canada",Fortune,47.072,-55.8273,福琼,California,5,CA,加拿大,Canada,
"Frederiksted, Virgin Islands (U.S.)",Frederiksted,17.7125,-64.8815,弗雷德里克斯德德,Frederiksted,5,VI,美属维尔京群岛,Virgin Islands (U.S.),
"Freeport, TX, United States",Freeport,28.9496,-95.3444,弗里波特,Freeport,5,US,美国,United States,
"Freetown, Sierra Leone",Freetown,8.48533,-13.2381,弗里敦,Freetown,5,SL,塞拉利昂,Sierra Leone,
"French Creek, BC, Canada",French Creek,49.3421,-124.356,帕克斯维尔,Parksville,5,CA,加拿大,Canada,
"Fresh Creek, Bahamas",Fresh Creek,24.6898,-77.8446,安德罗斯镇,Andros Town,5,BS,巴哈马,Bahamas,
"Fujairah, United Arab Emirates",Fujairah,25.1217,56.3337,富查伊拉,Fujairah,5,AE,阿联酋,United Arab Emirates,
"Fukuoka, Japan",Fukuoka,33.5903,130.402,福冈市,Fukuoka,5,JP,日本,Japan,
"Funchal, Portugal",Funchal,32.6469,-16.9089,丰沙尔,Funchal,5,PT,葡萄牙,Portugal,
"Fuzhou, China",Fuzhou,25.7801,119.619,福州市,Fuzhou,5,CN,中国,China,
"Gaeta, Italy",Gaeta,41.2179,13.5654,加埃塔,Gaeta,5,IT,意大利,Italy,
"Gallows Bay, Bonaire, Sint Eustatius and Saba",Gallows Bay,17.4759,-62.9855,奥拉涅斯塔德,Oranjestad,5,BQ,博纳尔，圣俄斯塔休斯和萨巴,"Bonaire, Sint Eustatius and Saba",
"Galway, Ireland",Galway,53.2739,-9.04834,戈尔韦,Galway,5,IE,爱尔兰,Ireland,
"Ganaveh, Iran",Ganaveh,29.5707,50.5211,加纳韦,Bandar Ganaveh,5,IR,伊朗,Iran,
"Gavá, Spain",Gavá,41.304,2.00134,加瓦,Gavà,5,ES,西班牙,Spain,auto translate
"Gedebak Odde, Denmark",Gedebak Odde,55.0126,14.9667,奥基克比,Aakirkeby,5,DK,丹麦,Denmark,
"Gedser, Denmark",Gedser,54.5764,11.929,盖瑟,Gedser,5,DK,丹麦,Denmark,
"Genoa, Italy",Genoa,44.4103,8.9389,热那亚,Genoa,5,IT,意大利,Italy,
"George Town, Bahamas",George Town,23.5166,-75.788,乔治镇,George Town,5,BS,巴哈马,Bahamas,
"Georgetown, Guyana",Georgetown,6.8045,-58.1548,乔治城,3700,5,GY,圭亚那,Guyana,
"Gianyar, Indonesia",Gianyar,-8.53671,115.331,吉亚尼亚尔,Gianyar Regency,5,ID,印度尼西亚,Indonesia,
"Gibraltar, Gibraltar",Gibraltar,36.1559,-5.34768,拉利内阿－德拉康塞普西翁,La Línea de la Concepción,5,ES,西班牙,Spain,
"Güimar, Canary Islands, Spain",Güimar,28.3106,-16.4126,圭马尔,Güímar,5,ES,西班牙,Spain,
"Girvan, United Kingdom",Girvan,55.2402,-4.85422,格文,Girvan,5,GB,英国,United Kingdom,
"Glenbarr, United Kingdom",Glenbarr,55.5655,-5.69758,塔伯特,Tarbert,6,GB,英国,United Kingdom,
"Golden Bay, Malta",Golden Bay,35.9387,14.3445,梅利哈,Mellieħa,5,MT,马耳他,Malta,
"Golfo Aranci, Italy",Golfo Aranci,41.0048,9.61316,阿兰奇湾城,Golfo Aranci,5,IT,意大利,Italy,
"Goonhilly Downs, United Kingdom",Goonhilly Downs,50.0248,-5.17453,赫尔斯顿,Helston,6,GB,英国,United Kingdom,
"Goose Bay, NL, Canada",Goose Bay,53.3017,-60.3261,古斯贝,California,5,CA,加拿大,Canada,
"Gqeberha, South Africa",Gqeberha,-33.9625,25.6233,伊丽莎白港,Gqeberha,5,ZA,南非,South Africa,
"Gran Canaria, Canary Islands, Spain",Gran Canaria,27.9577,-15.5966,圣巴托洛梅,San Bartolomé,5,ES,西班牙,Spain,
"Grand Baie (Rodrigues), Mauritius",Grand Baie (Rodrigues),-19.6743,63.4482,马蒂兰港,Port Mathurin,5,MU,毛里求斯,Mauritius,
"Great Bay Beach, Sint Maarten",Great Bay Beach,18.0245,-63.0551,菲利普斯堡,Philipsburg,5,SX,荷属圣马丁,Sint Maarten (Dutch part),
"Great Level Bay, Bonaire, Sint Eustatius and Saba",Great Level Bay,17.6151,-63.2442,圣约翰斯,St. John's,5,BQ,博纳尔，圣俄斯塔休斯和萨巴,"Bonaire, Sint Eustatius and Saba",
"Great Nicobar, India",Great Nicobar,7.03133,93.9274,登拉,Tenlaa,5,IN,印度,India,
"Grover Beach, CA, United States",Grover Beach,35.1209,-120.621,格罗弗海滩,Grover Beach,5,US,美国,United States,
"Guantanamo Bay, Cuba",Guantanamo Bay,19.9396,-75.1582,博克龙,Boqueron,5,CU,古巴,Cuba,
"Guanyin Mountain, China",Guanyin Mountain,24.4939,118.189,厦门市,Xiamen,5,CN,中国,China,
"Gustavia, Saint Barthélemy",Gustavia,17.8979,-62.8506,古斯塔维亚,Gustavia,5,BL,圣巴泰勒米,Saint Barthélemy,auto translate
"Gutcher, United Kingdom",Gutcher,60.6694,-1.00722,加彻,Gutcher,5,GB,英国,United Kingdom,
"Haifa, Israel",Haifa,32.8114,34.9988,海法,Haifa,5,IL,以色列,Israel,
"Haina, Dominican Republic",Haina,18.699,-70.1618,阿尔塔格拉西亚镇,Villa Altagracia,5,DO,多米尼加,Dominican Republic,
"Hainan, China",Hainan,20.0174,110.349,海口市,Haikou,5,CN,中国,China,
"Haines, AK, United States",Haines,59.2358,-135.445,海恩斯,Haines,5,US,美国,United States,
"Halifax, NS, Canada",Halifax,44.6458,-63.574,哈利法克斯,Halifax Regional Municipality,5,CA,加拿大,Canada,
"Hanko, Finland",Hanko,59.8234,22.9682,汉科,Hanko,5,FI,芬兰,Finland,auto translate
"Hanstholm, Denmark",Hanstholm,57.1116,8.61618,汉斯特霍尔姆,Hanstholm,5,DK,丹麦,Denmark,
"Haradsholm, Finland",Haradsholm,60.301,22.3021,帕拉伊宁,Pargas,5,FI,芬兰,Finland,
"Haramous, Djibouti",Haramous,11.5737,43.1617,吉布提,Djibouti,5,DJ,吉布提,Djibouti,
"Harbour Pointe, WA, United States",Harbour Pointe,47.8863,-122.302,马科尔蒂奥,Mukilteo,5,US,美国,United States,
"Hartley Bay, BC, Canada",Hartley Bay,53.4253,-129.255,哈特利贝,Hartley Bay,5,CA,加拿大,Canada,
"Haugesund, Norway",Haugesund,59.4464,5.29833,海于格松,Haugesund,5,NO,挪威,Norway,
"Havelock, India",Havelock,11.9761,92.9876,南安达曼县,South Andaman,3,IN,印度,India,
"Hawaii Kai, HI, United States",Hawaii Kai,21.272,-157.669,檀香山,Honolulu,5,US,美国,United States,
"Hawk Inlet, AK, United States",Hawk Inlet,58.1281,-134.742,朱诺,Juneau,5,US,美国,United States,
"Helsingborg, Sweden",Helsingborg,56.0438,12.6959,赫尔辛堡,Helsingborg,5,SE,瑞典,Sweden,
"Helsingør, Denmark",Helsingør,56.0304,12.5922,赫尔辛格,Helsingør,5,DK,丹麦,Denmark,
"Helsinki, Finland",Helsinki,60.1711,24.9325,赫尔辛基,Helsinki,5,FI,芬兰,Finland,
"Hemnesberget, Norway",Hemnesberget,66.2242,13.6245,海姆内斯贝格,Hemnesberget,5,NO,挪威,Norway,
"Heraklion (Crete), Greece",Heraklion (Crete),35.3384,25.1279,伊拉克利翁,Heraklion,5,GR,希腊,Greece,
"Heriot Bay, BC, Canada",Heriot Bay,50.1013,-125.216,坎贝尔里弗,Campbell River,5,CA,加拿大,Canada,
"Hermosa Beach, CA, United States",Hermosa Beach,33.8622,-118.4,何尔摩沙海滩,Hermosa Beach,5,US,美国,United States,
"Highbridge, United Kingdom",Highbridge,51.2222,-2.97502,海布里奇,Highbridge,5,GB,英国,United Kingdom,
"Higuerote, Venezuela",Higuerote,10.4803,-66.0981,伊格罗特,Higuerote,5,VE,委内瑞拉,Venezuela,
"Hillsboro, OR, United States",Hillsboro,45.5229,-122.99,希尔斯伯勒,Hillsborough,5,US,美国,United States,
"Hirtshals, Denmark",Hirtshals,57.5882,9.95926,希茨海尔斯,Hirtshals,5,DK,丹麦,Denmark,
"Hithadhoo, Maldives",Hithadhoo,-0.606021,73.0892,色努,Addu City,5,MV,马尔代夫,Maldives,
"Hiva Oa, French Polynesia",Hiva Oa,-9.75468,-139.021,希瓦瓦岛,Hiva Oa,5,PF,法属波利尼西亚,French Polynesia,
"Hollywood, FL, United States",Hollywood,26.0102,-80.1602,好莱坞,Hollywood,5,US,美国,United States,
"Holyhead, United Kingdom",Holyhead,53.306,-4.63039,霍利黑德,Holyhead,5,GB,英国,United Kingdom,
"Homer, AK, United States",Homer,59.6464,-151.544,荷马,Homer,5,US,美国,United States,
"Hong Kong, China",Hong Kong,22.2833,114.159,香港,Hong Kong,5,HK,中国香港,Hong Kong,
"Honiara, Solomon Islands",Honiara,-9.42909,159.95,霍尼亚拉,Honiara,5,SB,所罗门群岛,Solomon Islands,
"Horseshoe Bay, BC, Canada",Horseshoe Bay,49.3748,-123.277,西温哥华,West Vancouver,5,CA,加拿大,Canada,
"Houstrup, Denmark",Houstrup,55.7646,8.19313,北内伯尔,Norre Nebel,5,DK,丹麦,Denmark,
"Hoxa, United Kingdom",Hoxa,58.8264,-2.99136,圣玛格丽茨霍普,Saint Margaret's Hope,5,GB,英国,United Kingdom,
"Huahine, French Polynesia",Huahine,-16.7301,-151.0,胡阿希内岛,Huahine-Iti,5,PF,法属波利尼西亚,French Polynesia,
"Hulhumale, Maldives",Hulhumale,4.21191,73.5403,马累,Malé,5,MV,马尔代夫,Maldives,
"Humacao, PR, United States",Humacao,18.1178,-65.7813,乌马考,Humacao,5,PR,波多黎各,Puerto Rico,
"Huxi Township, Taiwan",Huxi Township,23.5736,119.656,澎湖县,Penghu County,2,TW,中国台湾,Taiwan,
"Ibaraki, Japan",Ibaraki,36.3422,140.27,笠间市,Kasama,5,JP,日本,Japan,
"Ibiza, Spain",Ibiza,38.9061,1.41889,伊维萨,Ibiza,5,ES,西班牙,Spain,
"Igiugig, AK, United States",Igiugig,59.3278,-155.895,伊久吉格,Igiugig,5,US,美国,United States,
"Igneada, Turkey",Igneada,41.8842,27.9853,代米尔柯伊,Demirköy,2,TR,土耳其,Turkey,
"Ijmuiden, Netherlands",Ijmuiden,52.4585,4.61369,艾默伊登,IJmuiden,5,NL,荷兰,Netherlands,
"Ilhéus, Brazil",Ilhéus,-14.788,-39.0477,伊列乌斯,Ilhéus,5,BR,巴西,Brazil,
"Ilijan, Philippines",Ilijan,13.6357,121.078,八打雁,Batangas,5,PH,菲律宾,Philippines,
"Illiamna, AK, United States",Illiamna,59.7548,-154.906,伊利亚姆纳,Iliamna,5,US,美国,United States,
"Ilo, Peru",Ilo,-17.6412,-71.3237,伊洛,Ilo,5,PE,秘鲁,Peru,auto translate
"Iloilo City, Philippines",Iloilo City,10.7201,122.562,伊洛伊洛,Iloilo City,5,PH,菲律宾,Philippines,
"Inukjuak, QC, Canada",Inukjuak,58.4551,-78.1051,伊努克爪克,Inukjuak,5,CA,加拿大,Canada,
"Invercargill, New Zealand",Invercargill,-46.4131,168.348,因弗卡吉尔,Invercargill,5,NZ,新西兰,New Zealand,
"Inverloch, VIC, Australia",Inverloch,-38.6335,145.729,因沃洛什,Inverloch,5,AU,澳大利亚,Australia,
"Iqaluit, NU, Canada",Iqaluit,63.7486,-68.5197,伊卡卢伊特,Iqaluit,5,CA,加拿大,Canada,
"Iquique, Chile",Iquique,-20.2167,-70.1422,伊基克,Iquique,5,CL,智利,Chile,
"Ishikari, Japan",Ishikari,43.1714,141.316,石狩市,Ishikari,5,JP,日本,Japan,
"Isla Verde, PR, United States",Isla Verde,18.4417,-66.0169,卡罗莱纳州,North Carolina,5,PR,波多黎各,Puerto Rico,
"Island Park, NY, United States",Island Park,40.6003,-73.6559,艾兰帕克,Island Park,5,US,美国,United States,
"Istanbul, Turkey",Istanbul,41.0406,28.9861,伊斯坦布尔,İstanbul,5,TR,土耳其,Turkey,
"Itoshima, Japan",Itoshima,33.5975,130.15,丝岛市,Itoshima,5,JP,日本,Japan,
"Ivory Island, BC, Canada",Ivory Island,52.2716,-128.405,贝拉贝拉,Bella Bella,5,CA,加拿大,Canada,
"Ixtapa-Zihuatanejo, Mexico",Ixtapa-Zihuatanejo,17.6641,-101.611,伊斯塔帕,Ixtapa Zihuatanejo,5,MX,墨西哥,Mexico,
"Jacksonville, FL, United States",Jacksonville,30.332,-81.6557,杰克逊维尔,Jacksonville,5,US,美国,United States,
"Jakarta, Indonesia",Jakarta,-6.17159,106.828,中雅加达行政市,Central Jakarta,5,ID,印度尼西亚,Indonesia,
"Jambi, Indonesia",Jambi,-1.59001,103.61,占碑,Jambi,5,ID,印度尼西亚,Indonesia,
"Jarry, Guadeloupe",Jarry,16.243,-61.5549,拜马欧,Baie-Mahault,5,GP,瓜德罗普,Guadeloupe,
"Jask, Iran",Jask,25.6812,57.7974,贾斯克,Bandar-e-Jask,5,IR,伊朗,Iran,
"Jayapura, Indonesia",Jayapura,-2.59156,140.669,查亚普拉,Jayapura,5,ID,印度尼西亚,Indonesia,
"Jdaide, Lebanon",Jdaide,33.8919,35.563,朱代德,Jdeideh,5,LB,黎巴嫩,Lebanon,
"Jeddah, Saudi Arabia",Jeddah,21.4815,39.1829,吉达,Jeddah,5,SA,沙特阿拉伯,Saudi Arabia,
"Jimbaran, Indonesia",Jimbaran,-8.78407,115.16,巴塘,Batang County,2,ID,印度尼西亚,Indonesia,
"Jinhu Township, Taiwan",Jinhu Township,24.4375,118.439,金湖,Jinhu,5,TW,中国台湾,Taiwan,
"João Pessoa, Brazil",João Pessoa,-7.11529,-34.861,若昂佩索阿,João Pessoa,5,BR,巴西,Brazil,auto translate
"Juneau, AK, United States",Juneau,58.2995,-134.407,朱诺,Juneau,5,US,美国,United States,
"Kagoshima, Japan",Kagoshima,31.5965,130.557,鹿儿岛市,Kagoshima,5,JP,日本,Japan,
"Kahe Point, HI, United States",Kahe Point,21.354,-158.131,纳纳库利,Nānākuli,5,US,美国,United States,
"Kaiete Point, BC, Canada",Kaiete Point,52.0637,-127.951,欧申福尔斯,Ocean Falls,5,CA,加拿大,Canada,
"Kaikoura, New Zealand",Kaikoura,-42.4027,173.683,凯库拉,Kaikōura,5,NZ,新西兰,New Zealand,
"Kaimana, Indonesia",Kaimana,-3.67935,133.791,凯马纳,Kaimana,2,ID,印度尼西亚,Indonesia,
"Kalba, United Arab Emirates",Kalba,25.0515,56.34,凯勒巴,Kalba,5,AE,阿联酋,United Arab Emirates,
"Kalianda, Indonesia",Kalianda,-5.76926,105.585,南楠榜,South Lampung Regency,2,ID,印度尼西亚,Indonesia,
"Kaliningrad, Russia",Kaliningrad,54.7089,20.508,加里宁格勒,Kaliningrad,5,RU,俄罗斯,Russian Federation,
"Kampung Buntal, Malaysia",Kampung Buntal,1.67509,110.294,古晋,Kuching,5,MY,马来西亚,Malaysia,
"Kapolei, HI, United States",Kapolei,21.3354,-158.057,卡波雷,Kapolei,5,US,美国,United States,
"Karachi, Pakistan",Karachi,24.8897,67.0285,卡拉奇,Karachi,5,PK,巴基斯坦,Pakistan,
"Kardamena, Greece",Kardamena,36.7829,27.1434,卡尔扎迈纳,Kardamaina,5,GR,希腊,Greece,
"Karimun, Indonesia",Karimun,0.76981,103.405,大卡里蒙岛,Karimun Regency,2,ID,印度尼西亚,Indonesia,
"Katong, Singapore",Katong,1.30928,103.905,新加坡,Singapore,5,SG,新加坡,Singapore,
"Katthammarsvik, Sweden",Katthammarsvik,57.431,18.8453,卡特哈马什维克,Katthammarsvik,5,SE,瑞典,Sweden,
"Kauditan, Indonesia",Kauditan,1.37862,125.066,北米纳哈萨县,North Minahasa Regency,2,ID,印度尼西亚,Indonesia,
"Kaunakakai, HI, United States",Kaunakakai,21.0933,-157.024,考纳卡凯,Kaunakakai,5,US,美国,United States,
"Kavaratti, India",Kavaratti,10.5647,72.6407,卡瓦拉蒂,Kavaratti,5,IN,印度,India,
"Kavieng, Papua New Guinea",Kavieng,-2.57811,150.809,卡维恩,Kavieng,5,PG,巴布亚新几内亚,Papua New Guinea,
"Kavos, Greece",Kavos,39.3854,20.1129,卡沃斯,Calvos,5,GR,希腊,Greece,
"Kawaihae, HI, United States",Kawaihae,20.0403,-155.831,卡韦哈伊,Kawaihae,5,US,美国,United States,
"Kaweni, Mayotte",Kaweni,-12.8171,45.1659,马穆楚,Mamoudzou,5,YT,马约特,Mayotte,
"Kawinda Nae, Indonesia",Kawinda Nae,-8.10806,117.862,比马,Bima,2,ID,印度尼西亚,Indonesia,
"Kekaha, HI, United States",Kekaha,21.9703,-159.724,凯卡哈,Kekaha,5,US,美国,United States,
"Kelibia, Tunisia",Kelibia,36.8493,11.0899,古莱比耶,Kelibia,5,TN,突尼斯,Tunisia,
"Kenai, AK, United States",Kenai,60.5529,-151.26,基奈,Kenai,5,US,美国,United States,
"Kendal, Indonesia",Kendal,-7.02655,110.188,肯德尔,Kendal,2,ID,印度尼西亚,Indonesia,
"Kendari, Indonesia",Kendari,-3.99845,122.513,肯达里,Kendari,5,ID,印度尼西亚,Indonesia,
"Kep. Aru, Indonesia",Kep. Aru,-6.19464,134.55,阿鲁群岛,Aru Islands Regency,2,ID,印度尼西亚,Indonesia,
"Kerch, Ukraine",Kerch,45.357,36.4774,刻赤,Kerch,5,UA,乌克兰,Ukraine,
"Kerema, Papua New Guinea",Kerema,-7.96373,145.772,凯里马,Kerema,5,PG,巴布亚新几内亚,Papua New Guinea,
"Ketapang, Indonesia",Ketapang,-1.85912,109.972,吉打邦,Roman Catholic Diocese of Ketapang,2,ID,印度尼西亚,Indonesia,
"Ketchikan, AK, United States",Ketchikan,55.3421,-131.648,凯奇坎,Ketchikan,5,US,美国,United States,
"Khark Island, Iran",Khark Island,29.2458,50.312,哈尔克,Jarque,5,IR,伊朗,Iran,
"Khasab, Oman",Khasab,26.1813,56.2468,海塞卜,Khasab,5,OM,阿曼,Oman,
"Kiamsam, Malaysia",Kiamsam,5.25533,115.169,纳闽岛,Labuan,5,MY,马来西亚,Malaysia,
"Kihei, Maui, HI, United States",Kihei,20.7822,-156.463,基黑,Kihei,5,US,美国,United States,
"Kikori, Papua New Guinea",Kikori,-7.41351,144.24,基科里,Kikori,5,PG,巴布亚新几内亚,Papua New Guinea,
"Kiltan, India",Kiltan,11.4852,73.0064,吉尔丹岛,Kilthan Island,5,IN,印度,India,
"Kimbe, Papua New Guinea",Kimbe,-5.55116,150.139,金贝,Kimbe,5,PG,巴布亚新几内亚,Papua New Guinea,
"King Cove, AK, United States",King Cove,55.0492,-162.304,金科夫,King Cove,5,US,美国,United States,
"Kingisepp, Russia",Kingisepp,59.4459,28.6698,金吉谢普,Kingisepp,5,RU,俄罗斯,Russian Federation,
"Kingstown, Saint Vincent and the Grenadines",Kingstown,13.1454,-61.2083,阿诺斯谷,Arnos Vale,5,VC,圣文森特和格林纳丁斯,Saint Vincent and the Grenadines,
"Kiritimati, Kiribati",Kiritimati,1.87214,-157.428,波兰,Poland,5,KI,基里巴斯,Kiribati,
"Kista, Sweden",Kista,59.4029,17.9436,斯德哥尔摩,Stockholm,5,SE,瑞典,Sweden,
"Kita-kyushu, Japan",Kita-kyushu,33.8393,131.032,北九州市,Kitakyushu,5,JP,日本,Japan,
"Kitaibaraki, Japan",Kitaibaraki,36.8018,140.751,北茨城市,Kitaibaraki,5,JP,日本,Japan,
"Kökar, Finland",Kökar,59.921,20.908,雪卡尔,Kökar,5,AX,奥兰群岛,Aland Islands,
"Klagshamn, Sweden",Klagshamn,55.5333,12.9167,玛尔摩,Malmö,5,SE,瑞典,Sweden,
"Klaipeda, Lithuania",Klaipeda,55.6957,21.15,克莱佩达,Klaipėda,5,LT,立陶宛,Lithuania,
"Klemtu, BC, Canada",Klemtu,52.5918,-128.525,克莱姆图,Klemtu,5,CA,加拿大,Canada,
"Ko Olina, HI, United States",Ko Olina,21.3397,-158.119,卡波雷,Kapolei,5,US,美国,United States,
"Kochilari, Greece",Kochilari,36.7716,26.9951,科斯,Kos,4,GR,希腊,Greece,auto translate
"Kodiak, AK, United States",Kodiak,57.7944,-152.395,科迪亚克,Kodiak,5,US,美国,United States,
"Kokar, Indonesia",Kokar,-8.15831,124.453,阿洛县,Alor Regency,2,ID,印度尼西亚,Indonesia,
"Kokhanok, AK, United States",Kokhanok,59.4422,-154.753,科坎诺克,Kokhanok,5,US,美国,United States,
"Koko Head, HI, United States",Koko Head,21.2776,-157.696,檀香山,Honolulu,5,US,美国,United States,
"Kokopo, Papua New Guinea",Kokopo,-4.34235,152.275,科科波,Kokopo,5,PG,巴布亚新几内亚,Papua New Guinea,
"Kolobrzeg, Poland",Kolobrzeg,54.1723,15.5749,科沃布热格,Kołobrzeg,5,PL,波兰,Poland,
"Komesu, Japan",Komesu,26.0878,127.701,丝满市,Itoman,5,JP,日本,Japan,
"Korakia, Greece",Korakia,35.4047,24.9316,伊拉克利翁,Heraklion,4,GR,希腊,Greece,
"Korsor, Denmark",Korsor,55.3258,11.1494,科瑟,Korsør,5,DK,丹麦,Denmark,
"Kota Kinabalu, Malaysia",Kota Kinabalu,5.98134,116.074,哥打基纳巴鲁,Kota Kinabalu,5,MY,马来西亚,Malaysia,
"Kota Mappi, Indonesia",Kota Mappi,-7.10245,139.397,马皮,Mappi Regency,2,ID,印度尼西亚,Indonesia,auto translate
"Kotka, Finland",Kotka,60.501,26.8836,科特卡,Kotka,5,FI,芬兰,Finland,
"Kotzebue, AK, United States",Kotzebue,66.8983,-162.597,科策布,Kotzebue,5,US,美国,United States,
"Kourou, French Guiana",Kourou,5.1683,-52.6456,库鲁,Kourou,5,GF,法属圭亚那,French Guiana,auto translate
"Kralendijk, Bonaire, Netherlands",Kralendijk,12.1507,-68.2767,克拉伦代克,Kralendijk,5,BQ,博纳尔，圣俄斯塔休斯和萨巴,"Bonaire, Sint Eustatius and Saba",
"Kärdla, Estonia",Kärdla,59.0009,22.738,凯尔德拉,Kärdla,5,EE,爱沙尼亚,Estonia,
"Kremasti, Greece",Kremasti,36.4116,28.1201,克雷马斯蒂,Kremasti,5,GR,希腊,Greece,auto translate
"Kribi, Cameroon",Kribi,2.93292,9.91042,克里比,Kribi,5,CM,喀麦隆,Cameroon,
"Kristiansand, Norway",Kristiansand,58.1438,7.99484,克里斯蒂安桑,Kristiansand,5,NO,挪威,Norway,
"Kristiansund, Norway",Kristiansund,63.1108,7.72968,克里斯蒂安松,Kristiansund,5,NO,挪威,Norway,
"Kuakata, Bangladesh",Kuakata,21.8167,90.1166,库亚加塔,Kuakata,5,BD,孟加拉国,Bangladesh,
"Kuantan, Malaysia",Kuantan,3.81517,103.323,关丹,Kuantan,5,MY,马来西亚,Malaysia,
"Kuching, Malaysia",Kuching,1.5202,110.354,古晋,Kuching,5,MY,马来西亚,Malaysia,
"Kungsbacka, Sweden",Kungsbacka,57.4875,12.0762,孔斯巴卡,Kungsbacka,5,SE,瑞典,Sweden,
"Kupang, Indonesia",Kupang,-10.1833,123.583,古邦,Kupang,5,ID,印度尼西亚,Indonesia,
"Kuujjuarapik, QC, Canada",Kuujjuarapik,55.2746,-77.7638,库朱瓦拉皮克,Kuujjuarapik,5,CA,加拿大,Canada,
"Kuwait City, Kuwait",Kuwait City,29.3742,47.9747,科威特城,Kuwait City,5,KW,科威特,Kuwait,
"La Guaira, Venezuela",La Guaira,10.6032,-66.8896,马库托,Macuto,5,VE,委内瑞拉,Venezuela,
"La Línea, Spain",La Línea,36.2103,-5.32519,圣玛格丽塔,Santa Margalida,5,ES,西班牙,Spain,
"La Paz, Mexico",La Paz,24.1026,-110.305,拉巴斯,La Paz,5,MX,墨西哥,Mexico,
"La Serena, Chile",La Serena,-29.9063,-71.2502,塞雷那,La Serena,5,CL,智利,Chile,
"La Seyne, France",La Seyne,43.1029,5.8781,滨海拉塞讷,La Seyne-sur-Mer,5,FR,法国,France,
"La Union, Philippines",La Union,16.6159,120.321,圣费尔南多,San Fernando,5,PH,菲律宾,Philippines,
"Labuha, Indonesia",Labuha,-0.626796,127.48,南哈马黑拉县,South Halmahera Regency,2,ID,印度尼西亚,Indonesia,
"Lae, Papua New Guinea",Lae,-6.74279,146.993,莱城,Lae,5,PG,巴布亚新几内亚,Papua New Guinea,
"Lagavulin, United Kingdom",Lagavulin,55.6361,-6.12541,乐加维林,Lagavulin,5,GB,英国,United Kingdom,
"Lagos, Nigeria",Lagos,6.4391,3.4235,拉各斯,Lagos,5,NG,尼日利亚,Nigeria,
"Lahaina, HI, United States",Lahaina,20.9009,-156.684,拉海纳,Lahaina,5,US,美国,United States,
"Lakudo, Indonesia",Lakudo,-5.38912,122.56,布通,Buton Regency,2,ID,印度尼西亚,Indonesia,
"Lamaline, NL, Canada",Lamaline,46.869,-55.8033,拉马林,Lamaline,5,CA,加拿大,Canada,
"Lampedusa, Italy",Lampedusa,35.5015,12.6076,兰佩杜萨,Lampedusa,5,IT,意大利,Italy,
"Lannion, France",Lannion,48.7303,-3.45993,拉尼永,Lannion,5,FR,法国,France,
"L'Anse-à-Beaufils, QC, Canada",L'Anse-à-Beaufils,48.4718,-64.309,卡普代斯普瓦,Cap-d'Espoir,5,CA,加拿大,Canada,
"Lantau Island, China",Lantau Island,22.2715,113.948,香港,Hong Kong,5,HK,中国香港,Hong Kong,
"Largs, United Kingdom",Largs,55.7933,-4.86731,拉格斯,Largs,5,GB,英国,United Kingdom,
"Larne, United Kingdom",Larne,54.8575,-5.80986,拉恩,Larne,5,GB,英国,United Kingdom,auto translate
"Larsen Bay, AK, United States",Larsen Bay,57.5373,-153.986,拉森贝,Larsen Bay,5,US,美国,United States,
"Larvik, Norway",Larvik,59.0811,10.0164,拉尔维克,Larvik,5,NO,挪威,Norway,
"Las Caletillas, Spain",Las Caletillas,28.3773,-16.3624,拉斯卡莱蒂利亚斯,Las Caletillas,5,ES,西班牙,Spain,auto translate
"Lax Kw'alaams, BC, Canada",Lax Kw'alaams,54.5544,-130.434,辛普森港,Lax Kw'alaams,5,CA,加拿大,Canada,
"Le Lamentin, Martinique",Le Lamentin,14.6155,-61.0943,舍尔谢,Schœlcher,5,MQ,马提尼克,Martinique,
"Le Porge, France",Le Porge,44.8938,-1.21187,勒波日,Le Porge,5,FR,法国,France,
"Leava, Wallis and Futuna",Leava,-14.2968,-178.158,利瓦,Leava,5,WF,瓦利斯和富图纳,Wallis and Futuna,auto translate
"Leganes, Philippines",Leganes,10.7866,122.589,莱加内斯,Leganes,5,PH,菲律宾,Philippines,
"Legazpi City, Philippines",Legazpi City,13.1391,123.744,黎牙实比,Legazpi City,5,PH,菲律宾,Philippines,
"Lena Point, AK, United States",Lena Point,58.5509,-134.747,朱诺,Juneau,5,US,美国,United States,
"Les Îles-de-la-Madeleine, QC, Canada",Les Îles-de-la-Madeleine,47.3826,-61.9557,法蒂玛,Fátima,5,CA,加拿大,Canada,
"Ålesund, Norway",Ålesund,62.4715,6.17438,奥勒松,Ålesund,5,NO,挪威,Norway,
"Leverburgh, United Kingdom",Leverburgh,57.7694,-7.00837,利弗堡,Leverburgh,5,GB,英国,United Kingdom,
"Libreville, Gabon",Libreville,0.394508,9.45433,利伯维尔,Libreville,5,GA,加蓬,Gabon,
"Liepaja, Latvia",Liepaja,56.5082,21.0113,利耶帕亚,Liepāja,5,LV,拉脱维亚,Latvia,
"Lihue, HI, United States",Lihue,21.9749,-159.369,利胡埃,Lihue,5,US,美国,United States,
"Liloan, Philippines",Liloan,10.4064,123.988,利洛安,Liloan,5,PH,菲律宾,Philippines,
"Liloy, Philippines",Liloy,8.07386,122.678,利洛伊,Liloy,5,PH,菲律宾,Philippines,
"Limbe, Cameroon",Limbe,4.01452,9.20847,林贝,Limbe,5,CM,喀麦隆,Cameroon,auto translate
"Lingang, China",Lingang,30.9357,121.896,上海市,Shanghai,5,CN,中国,China,
"Lingao, China",Lingao,19.9048,109.678,临高县,Lingao County,7,CN,中国,China,
"Lingga, Indonesia",Lingga,-0.162759,104.635,林加,Kabupaten Lingga,2,ID,印度尼西亚,Indonesia,auto translate
"Lingshui, China",Lingshui,18.3899,110.049,陵水县,Lingshui Li Autonomous County,7,CN,中国,China,
"Linosa, Italy",Linosa,35.8584,12.8608,利诺萨,Linosa,5,IT,意大利,Italy,
"Lipari, Italy",Lipari,38.4684,14.9543,利帕里,Lipari,5,IT,意大利,Italy,
"Lista, Norway",Lista,58.0644,6.78693,法尔松,Farsund,5,NO,挪威,Norway,
"L’Île-Rousse, France",L’Île-Rousse,42.6365,8.93708,卢斯岛,L'Île-Rousse,5,FR,法国,France,
"Lochmaddy, United Kingdom",Lochmaddy,57.6037,-7.16335,洛赫马迪,Lochmaddy,5,GB,英国,United Kingdom,
"Logi, Russia",Logi,59.7999,28.4999,哥尔克,Gorki (Vistinskoe S/Pos),5,RU,俄罗斯,Russian Federation,auto translate
"Lombok, Indonesia",Lombok,-8.56143,116.073,马塔兰,Mataram,5,ID,印度尼西亚,Indonesia,
"Lome, Togo",Lome,6.12601,1.22781,洛美,Lomé,5,TG,多哥,Togo,auto translate
"Longyearbyen, Svalbard, Norway",Longyearbyen,78.2185,15.6488,朗伊尔城,Longyearbyen,5,SJ,斯瓦尔巴群岛和扬马延岛,Svalbard and Jan Mayen,
"Lorengau, Papua New Guinea",Lorengau,-2.03497,147.279,洛伦高,Lorengau,5,PG,巴布亚新几内亚,Papua New Guinea,
"Los Angeles, CA, United States",Los Angeles,34.0535,-118.245,洛杉矶,Los Angeles,5,US,美国,United States,
"Los Realejos, Canary Islands, Spain",Los Realejos,28.3976,-16.5864,洛斯雷亚莱霍斯,Los Realejos,5,ES,西班牙,Spain,
"Lowestoft, United Kingdom",Lowestoft,52.4714,1.72917,洛斯托夫特,Lowestoft,5,GB,英国,United Kingdom,
"Luanda, Angola",Luanda,-8.81266,13.235,罗安达,Luanda,5,AO,安哥拉,Angola,
"Lucena, Philippines",Lucena,13.9353,121.612,卢塞纳,Lucena,5,PH,菲律宾,Philippines,
"Luna, Philippines",Luna,16.8307,120.355,卢纳,Luna,5,PH,菲律宾,Philippines,
"Lund, BC, Canada",Lund,49.982,-124.761,伦德,Lund,5,CA,加拿大,Canada,
"Lurin, Peru",Lurin,-12.2785,-76.8743,卢林,Lurín,5,PE,秘鲁,Peru,auto translate
"Lusk, Ireland",Lusk,53.5263,-6.16589,拉斯克,Lusk,5,IE,爱尔兰,Ireland,auto translate
"Luwuk, Indonesia",Luwuk,-0.938827,122.793,邦盖,Banggai Tengah,2,ID,印度尼西亚,Indonesia,
"Lyngsa, Denmark",Lyngsa,57.2448,10.5146,赛比,Sæby,5,DK,丹麦,Denmark,auto translate
"Lynn, MA, United States",Lynn,42.4637,-70.9503,林恩,Lynn,5,US,美国,United States,
"Lynnwood, WA, United States",Lynnwood,47.824,-122.316,林伍德,Lynnwood,5,US,美国,United States,
"Maasin, Philippines",Maasin,10.1786,124.842,马阿辛,Maasin City,5,PH,菲律宾,Philippines,
"Macaé, Brazil",Macaé,-22.3718,-41.7856,马卡埃,Macaé,5,BR,巴西,Brazil,
"Macao Beach, Dominican Republic",Macao Beach,18.6491,-68.3581,蓬塔卡纳,Punta Cana,5,DO,多米尼加,Dominican Republic,
"Maceió, Brazil",Maceió,-9.66647,-35.735,马塞约,Maceió,5,BR,巴西,Brazil,
"Madang, Papua New Guinea",Madang,-5.23368,145.785,马当,Madang,5,PG,巴布亚新几内亚,Papua New Guinea,
"Madura, Indonesia",Madura,-6.90229,113.283,三邦,Sampang,2,ID,印度尼西亚,Indonesia,
"Magen’s Bay, VI, United States",Magen’s Bay,18.373,-64.9371,夏洛特阿马利亚,Charlotte Amalie,5,VI,美属维尔京群岛,Virgin Islands (U.S.),
"Magong City, Taiwan",Magong City,23.5716,119.575,马公,Magong,5,TW,中国台湾,Taiwan,
"Mahajanga, Madagascar",Mahajanga,-15.7137,46.3155,马任加,Mahajanga,5,MG,马达加斯加,Madagascar,
"Mahuma, Curaçao",Mahuma,12.1689,-68.9569,威廉斯塔德,Willemstad,5,CW,库拉索,Curaçao,
"Maiquetia, Venezuela",Maiquetia,10.5994,-66.9603,迈克蒂亚,Maiquetía,5,VE,委内瑞拉,Venezuela,
"Makaha, HI, United States",Makaha,21.4634,-158.221,马卡哈,Mākaha,5,US,美国,United States,
"Malabo, Equatorial Guinea",Malabo,3.74979,8.78337,马拉博,Malabo,5,GQ,赤道几内亚,Equatorial Guinea,
"Maldonado, Uruguay",Maldonado,-34.9004,-54.9502,马尔多纳多,Maldonado,5,UY,乌拉圭,Uruguay,
"Male, Maldives",Male,4.16626,73.4999,马累,Malé,5,MV,马尔代夫,Maldives,
"Malfa, Italy",Malfa,38.5783,14.8366,马尔法,Malfa,5,IT,意大利,Italy,
"Mallaigvaig, United Kingdom",Mallaigvaig,57.0085,-5.82043,马莱格,Mallaig,5,GB,英国,United Kingdom,
"Mallorca, Spain",Mallorca,39.6135,2.91156,皮纳,Sencelles,5,ES,西班牙,Spain,auto translate
"Mamoudzou, Mayotte",Mamoudzou,-12.7833,45.2333,马穆楚,Mamoudzou,5,YT,马约特,Mayotte,
"Mamu, China",Mamu,30.1719,121.946,舟山市,Zhoushan,5,CN,中国,China,
"Manado, Indonesia",Manado,1.49082,124.84,万鸦老,Manado,5,ID,印度尼西亚,Indonesia,
"Manama, Bahrain",Manama,26.2294,50.576,麦纳麦,Manama,5,BH,巴林,Bahrain,
"Manasquan, NJ, United States",Manasquan,40.1233,-74.047,马纳斯宽,Manasquan,5,US,美国,United States,
"Manchester, CA, United States",Manchester,38.9692,-123.687,曼彻斯特,United States,5,US,美国,United States,
"Mancora, Peru",Mancora,-4.15405,-81.0538,曼科拉,Máncora,5,PE,秘鲁,Peru,
"Manele Bay, HI, United States",Manele Bay,20.7434,-156.897,拉奈城,Lāna‘i City,5,US,美国,United States,
"Mangalia, Romania",Mangalia,43.8172,28.5828,曼加利亚,Mangalia,5,RO,罗马尼亚,Romania,
"Manihi, French Polynesia",Manihi,-14.4029,-145.958,马尼希岛,Manihi,5,PF,法属波利尼西亚,French Polynesia,auto translate
"Maniitsoq, Greenland",Maniitsoq,65.4077,-52.9057,苏克托彭,Maniitsoq,5,GL,格陵兰,Greenland,
"Manokwari, Indonesia",Manokwari,-0.861469,134.062,马诺夸里,Manokwari,5,ID,印度尼西亚,Indonesia,
"Manta, Ecuador",Manta,-0.95002,-80.7162,曼塔,Manta,5,EC,厄瓜多尔,Ecuador,auto translate
"Manzanillo, Mexico",Manzanillo,19.0858,-104.308,曼萨尼约,Manzanillo,5,MX,墨西哥,Mexico,
"Maputo, Mozambique",Maputo,-25.9682,32.5806,马普托,Maputo,5,MZ,莫桑比克,Mozambique,
"Maracaibo, Venezuela",Maracaibo,10.6882,-71.5984,马拉开波湾,Maracaibo,5,VE,委内瑞拉,Venezuela,
"Marettimo, Italy",Marettimo,37.9685,12.0736,马雷蒂莫,Marettimo,5,IT,意大利,Italy,auto translate
"Maria Chiquita, Panama",Maria Chiquita,9.43755,-79.7535,小玛丽亚,Pennsylvania,5,PA,巴拿马,Panama,
"Mariehamn, Finland",Mariehamn,60.1138,19.9379,玛丽港,Mariehamn,5,AX,奥兰群岛,Aland Islands,
"Marina di Ragusa, Italy",Marina di Ragusa,36.7848,14.5503,马里纳－迪拉古萨,Marina di Ragusa,5,IT,意大利,Italy,
"Markgrafenheide, Germany",Markgrafenheide,54.1914,12.1495,罗斯托克,Rostock,5,DE,德国,Germany,
"Marmaris, Turkey",Marmaris,36.8553,28.2537,马尔马里斯,Marmaris,5,TR,土耳其,Turkey,
"Maroochydore, QLD, Australia",Maroochydore,-26.6518,153.089,阳光海岸,Sunshine Coast,5,AU,澳大利亚,Australia,
"Marsala, Italy",Marsala,37.8001,12.4349,马尔萨拉,Marsala,5,IT,意大利,Italy,
"Marseille, France",Marseille,43.2936,5.37251,马赛,Marseille,5,FR,法国,France,
"Martin Valley, BC, Canada",Martin Valley,52.3601,-127.722,欧申福尔斯,Ocean Falls,5,CA,加拿大,Canada,
"Maruyama, Japan",Maruyama,35.0054,139.975,南房总市,Minamiboso,5,JP,日本,Japan,
"Masbate City, Philippines",Masbate City,12.3667,123.617,马士弼城,Masbate City,5,PH,菲律宾,Philippines,
"Masohi, Indonesia",Masohi,-3.29784,128.955,中马鲁古县,Central Maluku Regency,2,ID,印度尼西亚,Indonesia,
"Mata-Utu, Wallis and Futuna",Mata-Utu,-13.282,-176.175,马塔乌图,Matā'utu,5,WF,瓦利斯和富图纳,Wallis and Futuna,
"Matara, Sri Lanka",Matara,5.94083,80.5399,马塔勒,Matara,5,LK,斯里兰卡,Sri Lanka,
"Mataram, Indonesia",Mataram,-8.58639,116.082,马塔兰,Mataram,5,ID,印度尼西亚,Indonesia,
"Matnog, Philippines",Matnog,12.5853,124.085,马特诺格,Matnog,5,PH,菲律宾,Philippines,
"Matthew Town, Bahamas",Matthew Town,20.9505,-73.6831,马修镇,Matthew Town,5,BS,巴哈马,Bahamas,
"Mazara del Vallo, Italy",Mazara del Vallo,37.6505,12.5913,马扎拉－德尔瓦洛,Mazara del Vallo,5,IT,意大利,Italy,
"Mazatlán, Mexico",Mazatlán,23.1995,-106.422,马萨特兰,Mazatlán,5,MX,墨西哥,Mexico,
"McHugh Point, AK, United States",McHugh Point,61.0157,-149.732,安克雷奇,Anchorage,5,US,美国,United States,
"Medan, Indonesia",Medan,3.75214,98.6761,棉兰,Medan,5,ID,印度尼西亚,Indonesia,
"Melaka, Malaysia",Melaka,2.27318,102.221,马六甲,Malacca,5,MY,马来西亚,Malaysia,
"Melbourne, VIC, Australia",Melbourne,-37.8175,144.967,墨尔本,Melbourne,5,AU,澳大利亚,Australia,
"Melilla, Spain",Melilla,35.2923,-2.9381,梅利利亚,Melilla,5,ES,西班牙,Spain,
"Melkbosstrand, South Africa",Melkbosstrand,-33.7272,18.4458,开普敦,Cape Town,5,ZA,南非,South Africa,
"Mellieha, Malta",Mellieha,35.9524,14.3501,梅利哈,Mellieħa,5,MT,马耳他,Malta,
"Melonguane, Indonesia",Melonguane,4.043,126.717,塔劳群岛,Kepulauan Talaud Regency,2,ID,印度尼西亚,Indonesia,
"Merauke, Indonesia",Merauke,-8.49909,140.405,马老奇,Merauke,5,ID,印度尼西亚,Indonesia,
"Mestre, Italy",Mestre,45.4959,12.2441,威尼斯,Venice,5,IT,意大利,Italy,
"Metlakatla, BC, Canada",Metlakatla,54.3371,-130.444,爱德华港,Port Edward,5,CA,加拿大,Canada,
"Mgarr ix-Xini, Malta",Mgarr ix-Xini,36.0204,14.2713,桑纳特,Sannat,5,MT,马耳他,Malta,
"Mielno, Poland",Mielno,54.2599,16.0623,梅尔诺,Mielno,5,PL,波兰,Poland,
"Milagros, Philippines",Milagros,12.2181,123.509,米拉格罗斯,Milagros,5,PH,菲律宾,Philippines,
"Milton, NL, Canada",Milton,48.2076,-53.9603,莱斯布里奇,Lethbridge,5,CA,加拿大,Canada,
"Minamiboso, Japan",Minamiboso,34.9741,139.961,南房总市,Minamiboso,5,JP,日本,Japan,
"Miquelon-Langlade, Saint Pierre and Miquelon",Miquelon-Langlade,47.0837,-56.3499,密克隆,Miquelon-Langlade,5,PM,圣皮埃尔和密克隆,Saint Pierre and Miquelon,auto translate
"Miramar, PR, United States",Miramar,18.4534,-66.0829,圣胡安,San Juan,5,PR,波多黎各,Puerto Rico,
"Miri, Malaysia",Miri,4.4253,114.007,米里,Miri,5,MY,马来西亚,Malaysia,
"Misrata, Libya",Misrata,32.3743,15.0948,米苏拉塔,Misrata,5,LY,利比亚,Libyan Arab Jamahiriya,
"Miura, Japan",Miura,35.144,139.621,三浦市,Miura,5,JP,日本,Japan,
"Miyazaki, Japan",Miyazaki,32.0977,131.295,西都市,Saito,5,JP,日本,Japan,
"Mo I Rana, Norway",Mo I Rana,66.3137,14.142,穆村,Mo i Rana,5,NO,挪威,Norway,auto translate
"Mocha, Yemen",Mocha,13.3203,43.2473,穆哈,Mocha,5,YE,也门,Yemen,auto translate
"Mogadishu, Somalia",Mogadishu,2.04117,45.3441,摩加迪沙,Mogadishu,5,SO,索马里,Somalia,
"Molde, Norway",Molde,62.7372,7.16073,莫尔德,Mold,5,NO,挪威,Norway,
"Mombasa, Kenya",Mombasa,-4.05303,39.6729,蒙巴萨,Mombasa,5,KE,肯尼亚,Kenya,
"Monaco, Monaco",Monaco,43.7326,7.41765,摩纳哥,Monaco,5,MC,摩纳哥,Monaco,
"Monrovia, Liberia",Monrovia,6.30008,-10.7972,蒙罗维亚,Monrovia,5,LR,利比里亚,Liberia,
"Mont-Dore, New Caledonia",Mont-Dore,-22.2654,166.564,蒙多尔,North Carolina,5,NC,新喀里多尼亚,New Caledonia,
"Monte Carlo, Monaco",Monte Carlo,43.7397,7.42722,摩纳哥,Monaco,5,MC,摩纳哥,Monaco,
"Montego Bay, Jamaica",Montego Bay,18.4694,-77.9214,蒙特哥贝,Montego Bay,5,JM,牙买加,Jamaica,
"Morib, Malaysia",Morib,2.7512,101.444,万津,Banting,5,MY,马来西亚,Malaysia,
"Moroni, Comoros",Moroni,-11.7006,43.2434,莫罗尼,Moroni,5,KM,科摩罗,Comoros,auto translate
"Morotai, Indonesia",Morotai,2.36566,128.401,莫罗泰岛,Morotai Island,2,ID,印度尼西亚,Indonesia,
"Morro Bay, CA, United States",Morro Bay,35.3667,-120.847,莫罗贝,Morro Bay,5,US,美国,United States,
"Morrojable, Canary Islands, Spain",Morrojable,28.0487,-14.3584,莫罗哈夫莱,Morro Jable,5,ES,西班牙,Spain,
"Mosede, Denmark",Mosede,55.5759,12.273,格雷沃斯特兰,Greve Strand,5,DK,丹麦,Denmark,
"Mossbank, United Kingdom",Mossbank,60.4591,-1.18216,莫斯班克,Mossbank,5,GB,英国,United Kingdom,
"Msida, Malta",Msida,35.8987,14.4881,姆西达,Msida,5,MT,马耳他,Malta,
"Mt. Lavinia, Sri Lanka",Mt. Lavinia,6.83321,79.8668,代希瓦勒－芒特拉维尼亚,Mount Lavinia,5,LK,斯里兰卡,Sri Lanka,
"Mtunzini, South Africa",Mtunzini,-28.9506,31.7579,姆通济尼,Mtunzini,5,ZA,南非,South Africa,auto translate
"Mtwapa, Kenya",Mtwapa,-3.94613,39.7451,姆特瓦帕,Mtwapa,5,KE,肯尼亚,Kenya,
"Muanda, Congo, Dem. Rep.",Muanda,-5.93337,12.3499,莫安达,Muanda,5,CD,刚果（金）,Congo (the Democratic Republic of the),
"Mumbai, India",Mumbai,19.0761,72.8759,孟买,Mumbai,5,IN,印度,India,
"Muncar, Indonesia",Muncar,-8.44802,114.31,外南梦,Banyuwangi,2,ID,印度尼西亚,Indonesia,
"Mundra, India",Mundra,22.84,69.7261,蒙德拉,Mundra,5,IN,印度,India,
"Muntok, Indonesia",Muntok,-2.06517,105.164,门托克,Mentok,5,ID,印度尼西亚,Indonesia,
"Muscat, Oman",Muscat,23.6151,58.591,马斯喀特,Muscat,5,OM,阿曼,Oman,
"Mustique, Saint Vincent and the Grenadines",Mustique,12.8777,-61.1871,洛弗尔村,Lovell,5,VC,圣文森特和格林纳丁斯,Saint Vincent and the Grenadines,
"Mutsamudu, Comoros",Mutsamudu,-12.1667,44.4,穆察穆杜,Mutsamudu,5,KM,科摩罗,Comoros,
"Mykonos, Greece",Mykonos,37.4469,25.3286,米科诺斯,Mykonos,5,GR,希腊,Greece,
"Myrtle Beach, SC, United States",Myrtle Beach,33.6936,-78.8827,默特尔比奇,Myrtle Beach,5,US,美国,United States,
"Nabas, Philippines",Nabas,11.8679,122.033,纳巴斯,Nabas,5,PH,菲律宾,Philippines,
"Nabire, Indonesia",Nabire,-3.37223,135.502,纳比雷,Nabire,5,ID,印度尼西亚,Indonesia,
"Nacala, Mozambique",Nacala,-14.5656,40.6854,纳卡拉,Nacala,5,MZ,莫桑比克,Mozambique,
"Nador, Morocco",Nador,35.17,-2.93303,纳祖尔,Nador,5,MA,摩洛哥,Morocco,
"Naga, Philippines",Naga,10.2382,123.691,那牙,Naga,5,PH,菲律宾,Philippines,
"Nago, Japan",Nago,26.5915,127.977,名护市,Nago,5,JP,日本,Japan,
"Nakhodka, Russia",Nakhodka,42.8123,132.874,纳霍德卡,Nakhodka,5,RU,俄罗斯,Russian Federation,
"Namlea, Indonesia",Namlea,-3.23341,127.086,布鲁县,Buru Regency,2,ID,印度尼西亚,Indonesia,
"Nanhui, China",Nanhui,30.8647,121.925,上海市,Shanghai,5,CN,中国,China,
"Naoetsu, Japan",Naoetsu,37.1697,138.242,上越市,Joetsu,5,JP,日本,Japan,
"Naousa, Greece",Naousa,37.1222,25.2381,纳乌萨,Naousa,5,GR,希腊,Greece,
"Naples, FL, United States",Naples,26.1391,-81.7958,那不勒斯,Naples,5,US,美国,United States,
"Narragansett, RI, United States",Narragansett,41.4414,-71.4428,纳拉甘西特,Narragansett,5,US,美国,United States,
"Narrow Cape, AK, United States",Narrow Cape,57.4268,-152.329,科迪亚克,Kodiak,5,US,美国,United States,
"Narvik, Norway",Narvik,68.4206,17.56,斯特赖于姆斯内斯,Straumsnes,5,NO,挪威,Norway,auto translate
"Nassau, Bahamas",Nassau,25.067,-77.3402,拿骚,Nassau,5,BS,巴哈马,Bahamas,
"Nasugbu, Philippines",Nasugbu,14.0882,120.623,纳苏格布,Nasugbu,5,PH,菲律宾,Philippines,
"Natal, Brazil",Natal,-5.79483,-35.2112,纳塔耳,Natal,5,BR,巴西,Brazil,
"Natuna, Indonesia",Natuna,3.94566,108.143,纳土纳群岛,Natuna Regency,2,ID,印度尼西亚,Indonesia,
"Naxos, Greece",Naxos,37.1018,25.376,纳克索斯岛,Naxos,5,GR,希腊,Greece,
"Nedonna Beach, OR, United States",Nedonna Beach,45.6437,-123.94,尼多拿海滩,Nedonna Beach,5,US,美国,United States,
"Needham’s Point, Barbados",Needham’s Point,13.0788,-59.6127,布里奇顿,Bridgetown,5,BB,巴巴多斯,Barbados,auto translate
"Negril, Jamaica",Negril,18.2787,-78.3483,内格里尔,Negril,5,JM,牙买加,Jamaica,
"Neiafu, Tonga",Neiafu,-18.6477,-173.984,内亚富,Neiafu,5,TO,汤加,Tonga,
"Nelson, New Zealand",Nelson,-41.2723,173.284,尼尔逊,Nelson,5,NZ,新西兰,New Zealand,
"Nesna, Norway",Nesna,66.1981,13.0182,内斯纳,Nesna,5,NO,挪威,Norway,
"Nevelsk, Russia",Nevelsk,46.6844,141.859,涅韦尔斯克,Nevelsk,5,RU,俄罗斯,Russian Federation,
"New Plymouth, New Zealand",New Plymouth,-39.0667,174.083,新普利茅斯,New Plymouth,5,NZ,新西兰,New Zealand,
"New Victoria, NS, Canada",New Victoria,46.2529,-60.1296,新沃特福德,New Waterford,5,CA,加拿大,Canada,
"Newcastle, United Kingdom",Newcastle,54.9782,-1.61778,泰恩河畔纽卡斯尔,Newcastle upon Tyne,5,GB,英国,United Kingdom,
"Newhalen, AK, United States",Newhalen,59.7181,-154.9,纽哈伦,Newhalen,5,US,美国,United States,
"Ngwe Saung, Myanmar",Ngwe Saung,16.858,94.3912,内维桑,Ngwesaung,5,MM,缅甸,Myanmar,
"Nikiski, AK, United States",Nikiski,60.6898,-151.292,尼基斯基,Nikiski,5,US,美国,United States,
"Nome, AK, United States",Nome,64.5011,-165.406,诺姆,Nome,5,US,美国,United States,
"Nondalton, AK, United States",Nondalton,59.9726,-154.848,农多尔顿,Nondalton,5,US,美国,United States,
"Nopigeia, Greece",Nopigeia,35.5123,23.7225,普拉坦亚斯,Platanias,4,GR,希腊,Greece,
"Norrtalge, Sweden",Norrtalge,59.7597,18.7013,诺尔泰利耶,Norrtälje,5,SE,瑞典,Sweden,
"North Miami Beach, FL, United States",North Miami Beach,25.9329,-80.1624,北迈阿密海滩,North Miami Beach,5,US,美国,United States,
"North Salina, Bonaire, Sint Eustatius and Saba",North Salina,12.1638,-68.2841,克拉伦代克,Kralendijk,5,BQ,博纳尔，圣俄斯塔休斯和萨巴,"Bonaire, Sint Eustatius and Saba",
"Northport, NY, United States",Northport,40.9095,-73.3441,诺斯波特,Northport,5,US,美国,United States,
"Nouakchott, Mauritania",Nouakchott,18.0839,-15.9783,努瓦克肖特,Nouakchott,5,MR,毛里塔尼亚,Mauritania,
"Noumea, New Caledonia",Noumea,-22.303,166.439,努美阿,Nouméa,5,NC,新喀里多尼亚,New Caledonia,
"Nova Sintra, Cape Verde",Nova Sintra,14.873,-24.6954,辛特拉新镇,Nova Sintra,5,CV,佛得角,Cape Verde,
"Novorossiysk, Russia",Novorossiysk,44.7236,37.7728,新罗西斯克,Novorossiysk,5,RU,俄罗斯,Russian Federation,
"Nuku'alofa, Tonga",Nuku'alofa,-21.1333,-175.2,努库阿洛,Nuku'alofa,5,TO,汤加,Tonga,
"Nuuk, Greenland",Nuuk,64.1811,-51.73,努克,Nuuk,5,GL,格陵兰,Greenland,
"Nyali, Kenya",Nyali,-4.0505,39.7,蒙巴萨,Mombasa,5,KE,肯尼亚,Kenya,
"Nybor, Denmark",Nybor,55.3241,10.7995,尼堡,Nyborg,5,DK,丹麦,Denmark,
"Nybro, Sweden",Nybro,56.7438,15.9087,尼布鲁,Nybro,5,SE,瑞典,Sweden,
"Nynashamn, Sweden",Nynashamn,58.9029,17.9465,尼奈斯港,Nynäshamn,5,SE,瑞典,Sweden,
"N'zeto, Angola",N'zeto,-7.23333,12.8667,恩泽托,N'zeto,5,AO,安哥拉,Angola,
"Oara, New Zealand",Oara,-42.5161,173.506,凯库拉,Kaikōura,5,NZ,新西兰,New Zealand,
"Ocean Falls, BC, Canada",Ocean Falls,52.3534,-127.694,欧申福尔斯,Ocean Falls,5,CA,加拿大,Canada,
"Ocho Rios, Jamaica",Ocho Rios,18.3986,-77.1032,奥乔里奥斯,Ocho Rios,5,JM,牙买加,Jamaica,
"Okha, Russia",Okha,53.5775,142.942,奥哈,Okha,5,RU,俄罗斯,Russian Federation,auto translate
"Okinawa, Japan",Okinawa,26.2124,127.681,那霸市,Naha,5,JP,日本,Japan,
"Ola, Russia",Ola,59.5833,151.283,奥拉,Ola,5,RU,俄罗斯,Russian Federation,auto translate
"Olbia, Italy",Olbia,40.9225,9.48688,奥尔比亚,Olbia,5,IT,意大利,Italy,
"Old Bella Bella, BC, Canada",Old Bella Bella,52.1539,-128.122,欧申福尔斯,Ocean Falls,5,CA,加拿大,Canada,
"Ondong Siau, Indonesia",Ondong Siau,2.7546,125.373,锡奥塔古兰当比亚罗群岛县,Sitaro Islands Regency,2,ID,印度尼西亚,Indonesia,auto translate
"Open Bay, BC, Canada",Open Bay,50.1371,-125.196,坎贝尔里弗,Campbell River,5,CA,加拿大,Canada,
"Oran, Algeria",Oran,35.7016,-0.641966,奥兰,Oran,5,DZ,阿尔及利亚,Algeria,
"Ormoc, Philippines",Ormoc,11.007,124.613,奥尔莫克,Ormoc,5,PH,菲律宾,Philippines,
"Oslo, Norway",Oslo,59.9123,10.75,奥斯陆,Oslo,5,NO,挪威,Norway,
"Ostend, Belgium",Ostend,51.2311,2.91267,奥斯坦德,Ostend,5,BE,比利时,Belgium,
"Oteranga Bay, New Zealand",Oteranga Bay,-41.3016,174.613,惠灵顿,Wellington,5,NZ,新西兰,New Zealand,
"Otranto, Italy",Otranto,40.1481,18.4857,奥特朗托,Otranto,5,IT,意大利,Italy,
"Otter Ferry, United Kingdom",Otter Ferry,56.0083,-5.32121,奥特费里,Otter Ferry,5,GB,英国,United Kingdom,
"Oxford Falls, NSW, Australia",Oxford Falls,-33.7374,151.245,悉尼,Sydney,5,AU,澳大利亚,Australia,
"Oxwich Bay, United Kingdom",Oxwich Bay,51.5578,-4.1696,奥克斯威奇,Oxwich,5,GB,英国,United Kingdom,
"Ozamiz City, Philippines",Ozamiz City,8.15003,123.85,奥三棉示,Ozamiz City,5,PH,菲律宾,Philippines,
"Pa Li, Taiwan",Pa Li,25.15,121.383,八里区,Bali District,3,TW,中国台湾,Taiwan,
"Pacific City, OR, United States",Pacific City,45.2019,-123.963,太平洋城,Pacific,5,US,美国,United States,
"Padang Galak, Indonesia",Padang Galak,-8.6571,115.261,登巴萨,Denpasar,5,ID,印度尼西亚,Indonesia,
"Padang, Indonesia",Padang,-0.943868,100.362,巴东,Badong County,5,ID,印度尼西亚,Indonesia,
"Paddington, NSW, Australia",Paddington,-33.8821,151.229,帕丁顿,Paddington,5,AU,澳大利亚,Australia,
"Pago Pago, American Samoa",Pago Pago,-14.2765,-170.696,法加托戈,Fagatogo,5,AS,美属萨摩亚,American Samoa,
"Palanas, Philippines",Palanas,12.106,123.901,帕拉纳斯,Palanas,5,PH,菲律宾,Philippines,
"Palembang, Indonesia",Palembang,-2.99098,104.757,巨港,Palembang,5,ID,印度尼西亚,Indonesia,
"Palermo, Italy",Palermo,38.1215,13.3584,巴勒莫,Palermo,5,IT,意大利,Italy,
"Palma, Spain",Palma,39.5523,2.60525,帕尔马,Palma,5,ES,西班牙,Spain,
"Palompon, Philippines",Palompon,11.0549,124.397,帕隆蓬,Palompon,5,PH,菲律宾,Philippines,
"Panama City, Panama",Panama City,8.96483,-79.5367,巴拿马城,Pennsylvania,5,PA,巴拿马,Panama,
"Pangai, Tonga",Pangai,-19.8114,-174.35,庞艾,Pangai,5,TO,汤加,Tonga,
"Pankalan, Indonesia",Pankalan,-2.84967,111.753,西哥打瓦林因县,West Kotawaringin Regency,2,ID,印度尼西亚,Indonesia,
"Pantelleria, Italy",Pantelleria,36.8309,11.9435,潘泰莱里亚,Pantelleria,5,IT,意大利,Italy,
"Paramaribo, Suriname",Paramaribo,5.82403,-55.1739,帕拉马里博,Paramaribo,5,SR,苏里南,Suriname,
"Paraparaumu, New Zealand",Paraparaumu,-40.9191,174.997,帕拉帕拉乌穆,Paraparaumu,5,NZ,新西兰,New Zealand,
"Parque Isla de Salamanca, Colombia",Parque Isla de Salamanca,11.0122,-74.6119,锡蒂奥努埃沃,Sitionuevo,2,CO,哥伦比亚,Colombia,
"Pasacao, Philippines",Pasacao,13.5478,122.951,帕萨考,Pasacao,5,PH,菲律宾,Philippines,
"Pascagoula, MS, United States",Pascagoula,30.3658,-88.5561,帕斯卡古拉,Pascagoula,5,US,美国,United States,
"Patti, Italy",Patti,38.147,14.9684,帕蒂,Patti,5,IT,意大利,Italy,auto translate
"Pedersker, Denmark",Pedersker,55.0309,14.9922,奥基克比,Aakirkeby,5,DK,丹麦,Denmark,
"Pedro Bay, AK, United States",Pedro Bay,59.7872,-154.106,佩德罗贝,Pedro Bay,5,US,美国,United States,
"Peel, Isle of Man",Peel,54.2224,-4.69143,皮尔,Peel,5,IM,马恩岛,Isle of Man,auto translate
"Pegwell, Barbados",Pegwell,13.0626,-59.5363,奥伊斯廷斯,Oistins,5,BB,巴巴多斯,Barbados,
"Pekanbaru, Indonesia",Pekanbaru,0.533339,101.45,北干巴鲁,Pekanbaru,5,ID,印度尼西亚,Indonesia,
"Penang, Malaysia",Penang,5.35365,100.363,新路头,Perai,5,MY,马来西亚,Malaysia,
"Penarik, Indonesia",Penarik,3.66675,108.29,纳土纳群岛,Natuna Regency,2,ID,印度尼西亚,Indonesia,
"Penmarch, France",Penmarch,47.8113,-4.33869,庞马尔,Penmarch,5,FR,法国,France,
"Perryville, AK, United States",Perryville,55.9175,-159.145,佩里维尔,Perryville,5,US,美国,United States,
"Perth, WA, Australia",Perth,-31.9534,115.857,珀斯,Perth,5,AU,澳大利亚,Australia,
"Petersburg, AK, United States",Petersburg,56.8076,-132.97,彼得斯堡,Petersburg,5,US,美国,United States,
"Petit Perello, France",Petit Perello,47.6974,-3.44557,普洛埃默尔,Ploemeur,5,FR,法国,France,
"Petropavlovsk-Kamchatsky, Russia",Petropavlovsk-Kamchatsky,53.0167,158.65,彼得罗巴甫洛夫斯克,Petropavlovsk-Kamchatskiy,5,RU,俄罗斯,Russian Federation,
"Pevek, Russia",Pevek,69.7029,170.307,佩韦克,Pevek,5,RU,俄罗斯,Russian Federation,
"Philipsburg, Sint Maarten",Philipsburg,18.0302,-63.0458,菲利普斯堡,Philipsburg,5,SX,荷属圣马丁,Sint Maarten (Dutch part),
"Piedra Santa, Spain",Piedra Santa,28.0406,-15.4088,拉斯帕尔马斯-大加那利,Municipality of Las Palmas,5,ES,西班牙,Spain,
"Pile Bay, AK, United States",Pile Bay,59.7761,-153.88,佩德罗贝,Pedro Bay,5,US,美国,United States,
"Pinamalayan, Philippines",Pinamalayan,13.0459,121.465,皮纳马拉延,Pinamalayan,5,PH,菲律宾,Philippines,
"Piti, Guam",Piti,13.4647,144.695,皮蒂,Piti,5,GU,关岛,Guam,
"Placer, Philippines",Placer,11.9409,123.862,普莱瑟,Placer,5,PH,菲律宾,Philippines,
"Playa Blanca, Canary Islands, Spain",Playa Blanca,28.8634,-13.8273,布兰卡滩,Playa Blanca,5,ES,西班牙,Spain,auto translate
"Playa de Benitez, Spain",Playa de Benitez,35.8939,-5.33475,休达,Ceuta,5,ES,西班牙,Spain,
"Playa de la Ribera, Spain",Playa de la Ribera,35.8868,-5.31367,休达,Ceuta,5,ES,西班牙,Spain,
"Playa del Carmen, Mexico",Playa del Carmen,20.6297,-87.0702,普拉亚德尔卡曼,Playa del Carmen,5,MX,墨西哥,Mexico,
"Plerin, France",Plerin,48.5347,-2.76809,普莱兰,Plérin,5,FR,法国,France,
"Poindimie, New Caledonia",Poindimie,-20.9459,165.342,普安迪米耶,Poindimie,5,NC,新喀里多尼亚,New Caledonia,
"Point Hope, AK, United States",Point Hope,68.3478,-166.808,波因特霍普,Point Hope,5,US,美国,United States,
"Pointe-a-Pitre, Guadeloupe",Pointe-a-Pitre,16.241,-61.5331,皮特尔角城,Pointe-à-Pitre,5,GP,瓜德罗普,Guadeloupe,
"Pointe-au-Père, QC, Canada",Pointe-au-Père,48.5033,-68.4594,里穆斯基,Rimouski,5,CA,加拿大,Canada,
"Pointe-Noire, Congo, Rep.",Pointe-Noire,-4.77882,11.8636,黑角,Pointe-Noire,5,CG,刚果（布）,Congo,auto translate
"Ponce, PR, United States",Ponce,17.9827,-66.6266,蓬塞,Ponce,5,PR,波多黎各,Puerto Rico,
"Ponta Delgada, Portugal",Ponta Delgada,37.7392,-25.6688,蓬塔德尔加达,Ponta Delgada,5,PT,葡萄牙,Portugal,
"Pontianak, Indonesia",Pontianak,-0.0274075,109.335,坤甸,Pontianak,5,ID,印度尼西亚,Indonesia,
"Ponza, Italy",Ponza,40.8958,12.9587,蓬扎,Ponza,5,IT,意大利,Italy,
"Popondetta, Papua New Guinea",Popondetta,-8.60448,148.293,戈纳,Gona,5,PG,巴布亚新几内亚,Papua New Guinea,
"Porlamar, Venezuela",Porlamar,10.9553,-63.8476,波拉马尔,Porlamar,5,VE,委内瑞拉,Venezuela,
"Port Alberni, BC, Canada",Port Alberni,49.234,-124.808,艾伯尼港,Port Alberni,5,CA,加拿大,Canada,
"Port Alsworth, AK, United States",Port Alsworth,60.2004,-154.337,阿尔斯沃特港,Port Alsworth,5,US,美国,United States,
"Port Antonio, Jamaica",Port Antonio,18.1763,-76.4461,安东尼奥港,Port Antonio,5,JM,牙买加,Jamaica,
"Port Appin, United Kingdom",Port Appin,56.5523,-5.41241,阿平港,Port Appin,5,GB,英国,United Kingdom,
"Port-au-Prince, Haiti",Port-au-Prince,18.5427,-72.3431,太子港,Port-au-Prince,5,HT,海地,Haiti,
"Port Blair, India",Port Blair,11.6234,92.7265,布莱尔港,Port Blair,5,IN,印度,India,
"Port Gentil, Gabon",Port Gentil,-0.72104,8.78161,谦蒂尔港,Port-Gentil,5,GA,加蓬,Gabon,
"Port Hedland, WA, Australia",Port Hedland,-20.3135,118.577,黑德兰港,Port Hedland,5,AU,澳大利亚,Australia,
"Port Moresby, Papua New Guinea",Port Moresby,-9.47961,147.189,莫尔斯比港,Port Moresby,5,PG,巴布亚新几内亚,Papua New Guinea,
"Port Nelson, Bahamas",Port Nelson,23.6521,-74.8405,纳尔逊港,Port Nelson,5,BS,巴哈马,Bahamas,
"Port Nâl, France",Port Nâl,47.6502,-3.48227,格鲁瓦,Groix,5,FR,法国,France,
"Port of Spain, Trinidad and Tobago",Port of Spain,10.6498,-61.5167,西班牙港,Port of Spain,5,TT,特立尼达和多巴哥,Trinidad and Tobago,
"Port Said, Egypt",Port Said,31.2593,32.2845,塞得港,Port Said,5,EG,埃及,Egypt,
"Port Sudan, Sudan",Port Sudan,19.6156,37.2197,苏丹港,Port Sudan,5,SD,苏丹,Sudan,
"Port Vila, Vanuatu",Port Vila,-17.7303,168.323,维拉港,Port Vila,5,VU,瓦努阿图,Vanuatu,
"Portage, AK, United States",Portage,60.8283,-148.99,安克雷奇,Anchorage,5,US,美国,United States,
"Porthcurno, United Kingdom",Porthcurno,50.043,-5.65451,彭赞思,Penzance,6,GB,英国,United Kingdom,
"Porto Novo—Santo Antao, Cape Verde",Porto Novo—Santo Antao,17.0192,-25.0594,波多诺伏,Porto Novo,5,CV,佛得角,Cape Verde,
"Porto Rafti, Greece",Porto Rafti,37.8882,24.0114,拉夫蒂港,Porto Rafti,5,GR,希腊,Greece,
"Porto Seguro, Brazil",Porto Seguro,-16.4511,-39.0647,塞古鲁港,Porto Seguro,5,BR,巴西,Brazil,
"Portoferraio, Italy",Portoferraio,42.8121,10.3164,费拉约港,Portoferraio,5,IT,意大利,Italy,
"Portoscuso, Italy",Portoscuso,39.2066,8.37953,斯库索港,Portoscuso,5,IT,意大利,Italy,
"Portpatrick, United Kingdom",Portpatrick,54.8437,-5.11556,波特帕特里克,Portpatrick,5,GB,英国,United Kingdom,
"Poti, Georgia",Poti,42.1508,41.6676,波季,Poti,5,GE,格鲁吉亚,Georgia,
"Pozzallo, Italy",Pozzallo,36.7337,14.8539,波扎洛,Pozzallo,5,IT,意大利,Italy,
"Praia, Cape Verde",Praia,14.9232,-23.5212,普腊亚,Praia,5,CV,佛得角,Cape Verde,
"Preveza, Greece",Preveza,38.9593,20.7517,普雷韦扎,Preveza,5,GR,希腊,Greece,
"Prince Rupert, BC, Canada",Prince Rupert,54.3131,-130.326,鲁珀特王子港,Prince Rupert,5,CA,加拿大,Canada,
"Pringgabaya, Indonesia",Pringgabaya,-8.5371,116.655,东龙目县,East Lombok Regency,2,ID,印度尼西亚,Indonesia,
"Prudhoe Bay, AK, United States",Prudhoe Bay,70.2556,-148.338,普拉德霍湾,Prudhoe Bay,5,US,美国,United States,
"Puerto Ayora, Ecuador",Puerto Ayora,-0.742407,-90.3113,阿约拉港,Puerto Ayora,5,EC,厄瓜多尔,Ecuador,
"Puerto Baquerizo Moreno, Ecuador",Puerto Baquerizo Moreno,-0.909205,-89.6143,黑巴克里索港,Puerto Baquerizo Moreno,5,EC,厄瓜多尔,Ecuador,
"Puerto Barrios, Guatemala",Puerto Barrios,15.7272,-88.5972,巴里奥斯港,Puerto Barrios,5,GT,危地马拉,Guatemala,
"Puerto Cabello, Venezuela",Puerto Cabello,10.4781,-68.0096,卡贝略港,Puerto Cabello,5,VE,委内瑞拉,Venezuela,
"Puerto Cabezas, Nicaragua",Puerto Cabezas,14.0216,-83.3939,卡贝萨斯港,Puerto Cabezas,5,NI,尼加拉瓜,Nicaragua,
"Puerto Colombia, Colombia",Puerto Colombia,11.0052,-74.9528,哥伦比亚港,Puerto Colombia,5,CO,哥伦比亚,Colombia,
"Puerto Cortes, Honduras",Puerto Cortes,15.8452,-87.9462,科尔特斯港,Puerto Cortes,5,HN,洪都拉斯,Honduras,
"Puerto del Rosario, Canary Islands, Spain",Puerto del Rosario,28.4965,-13.8622,罗萨里奥港,Puerto del Rosario,5,ES,西班牙,Spain,
"Puerto General Villamil, Ecuador",Puerto General Villamil,-0.961038,-90.9621,比亚米尔港,Puerto Villamil,5,EC,厄瓜多尔,Ecuador,
"Puerto La Cruz, Venezuela",Puerto La Cruz,10.2025,-64.6449,拉克鲁斯港,Puerto La Cruz,5,VE,委内瑞拉,Venezuela,
"Puerto Limon, Costa Rica",Puerto Limon,9.98861,-83.0377,利蒙,Limon,5,CR,哥斯达黎加,Costa Rica,
"Puerto Montt, Chile",Puerto Montt,-41.4604,-72.9534,蒙特港,Puerto Montt,5,CL,智利,Chile,
"Puerto Plata, Dominican Republic",Puerto Plata,19.7993,-70.6912,普拉塔港,Puerto Plata,5,DO,多米尼加,Dominican Republic,
"Puerto Saavedra, Chile",Puerto Saavedra,-38.7871,-73.3968,萨韦德拉,Saavedra,5,CL,智利,Chile,
"Puerto San Jose, Guatemala",Puerto San Jose,13.9346,-90.8222,圣何塞,San Jose,5,GT,危地马拉,Guatemala,
"Puerto Viejo, Venezuela",Puerto Viejo,10.6112,-67.03,迈克蒂亚,Maiquetía,5,VE,委内瑞拉,Venezuela,
"Puerto Williams, Chile",Puerto Williams,-54.9352,-67.6059,威廉斯港,Puerto Williams,5,CL,智利,Chile,
"Puger, Indonesia",Puger,-8.37414,113.457,任抹,Jember,2,ID,印度尼西亚,Indonesia,
"Punta Arenas, Chile",Punta Arenas,-53.1667,-70.9333,蓬塔阿雷纳斯,Punta Arenas,5,CL,智利,Chile,
"Punta Cana, Dominican Republic",Punta Cana,18.6213,-68.4383,蓬塔卡纳,Punta Cana,5,DO,多米尼加,Dominican Republic,
"Punta Carnero, Ecuador",Punta Carnero,-2.27292,-80.9144,萨利纳斯,Salinas,5,EC,厄瓜多尔,Ecuador,
"Punta del Este, Uruguay",Punta del Este,-34.9667,-54.95,埃斯特角城,Punta del Este,5,UY,乌拉圭,Uruguay,
"Punta Dungeness, Argentina",Punta Dungeness,-52.3902,-68.4198,圭尔艾克县,Güer Aike Department,2,AR,阿根廷,Argentina,
"Punta Salina, PR, United States",Punta Salina,18.473,-66.1858,下托阿,Toa Baja,5,PR,波多黎各,Puerto Rico,
"Punto Fijo, Venezuela",Punto Fijo,11.7088,-70.2043,蓬托菲霍,Punto Fijo,5,VE,委内瑞拉,Venezuela,
"Puttgarden, Germany",Puttgarden,54.4961,11.2125,费马恩岛,Fehmarn,5,DE,德国,Germany,
"Puvirnituq, QC, Canada",Puvirnituq,60.0371,-77.2692,波乌恩尼图克,Puvirnituq,5,CA,加拿大,Canada,
"Pyapon, Myanmar",Pyapon,16.2822,95.6819,壁磅,Pyapon,5,MM,缅甸,Myanmar,auto translate
"Qalhat, Oman",Qalhat,23.6151,58.591,马斯喀特,Muscat,5,OM,阿曼,Oman,
"Qaqortoq, Greenland",Qaqortoq,60.7189,-46.0354,尤利安娜霍布,Qaqortoq,5,GL,格陵兰,Greenland,
"Qingdao, China",Qingdao,36.0871,120.343,青岛市,Qingdao,5,CN,中国,China,
"Quellon, Chile",Quellon,-43.1175,-73.4795,克利翁,Quellón,5,CL,智利,Chile,
"Quy Nhon, Vietnam",Quy Nhon,13.783,109.22,归仁,Quy Nhon,5,VN,越南,Viet Nam,
"Raha, Indonesia",Raha,-4.83238,122.721,穆纳县,Muna Regency,2,ID,印度尼西亚,Indonesia,
"Ranai, Indonesia",Ranai,3.9409,108.377,纳土纳群岛,Natuna Regency,2,ID,印度尼西亚,Indonesia,
"Rantu Prapat, Indonesia",Rantu Prapat,2.10514,99.8278,拉布汉巴都县,Labuhan Batu Regency,2,ID,印度尼西亚,Indonesia,
"Rarotonga, Cook Islands",Rarotonga,-21.2244,-159.77,阿瓦鲁,Avarua,5,CK,库克群岛,Cook Islands,
"Ras Lanuf, Libya",Ras Lanuf,30.5867,18.4119,拉努夫角,Ras Lanuf,5,LY,利比亚,Libyan Arab Jamahiriya,
"Ratmalana, Sri Lanka",Ratmalana,6.82039,79.8893,代希瓦勒－芒特拉维尼亚,Mount Lavinia,5,LK,斯里兰卡,Sri Lanka,
"Rayong, Thailand",Rayong,12.6707,101.277,罗勇市,Rayong,5,TH,泰国,Thailand,
"Recife, Brazil",Recife,-8.05534,-34.872,累西腓,Recife,5,BR,巴西,Brazil,
"Redondo Beach, CA, United States",Redondo Beach,33.8445,-118.388,雷东多海滩,Redondo Beach,5,US,美国,United States,
"Ridley Island, BC, Canada",Ridley Island,54.2234,-130.321,鲁珀特王子港,Prince Rupert,5,CA,加拿大,Canada,
"Rio de Janeiro, Brazil",Rio de Janeiro,-22.9034,-43.2096,里约热内卢,Rio de Janeiro,5,BR,巴西,Brazil,
"Riohacha, Colombia",Riohacha,11.4829,-72.9527,里奥阿查,Riohacha,2,CO,哥伦比亚,Colombia,
"Rønne, Denmark",Rønne,55.101,14.7083,伦讷,Rønne,5,DK,丹麦,Denmark,
"Rockly Bay, Trinidad and Tobago",Rockly Bay,11.1825,-60.7353,斯卡伯勒,Scarborough,5,TT,特立尼达和多巴哥,Trinidad and Tobago,
"Rodbyhavn, Denmark",Rodbyhavn,54.6631,11.3587,勒兹比,Rødby,5,DK,丹麦,Denmark,
"Rome, Italy",Rome,41.9031,12.4958,罗马,Rome,5,IT,意大利,Italy,
"Roquetas de Mar, Spain",Roquetas de Mar,36.7638,-2.6125,滨海罗克塔斯,Roquetas de Mar,5,ES,西班牙,Spain,auto translate
"Rosarito, Mexico",Rosarito,32.3576,-117.064,罗萨里托,Rosarito,5,MX,墨西哥,Mexico,
"Roseau, Dominica",Roseau,15.2518,-61.3707,米歇尔角,Pointe Michel,5,DM,多米尼克,Dominica,auto translate
"Rostock, Germany",Rostock,54.0789,12.1324,罗斯托克,Rostock,5,DE,德国,Germany,
"Rota, Northern Mariana Islands",Rota,14.1518,145.212,西那帕罗,Sinapalu,5,MP,北马里亚纳群岛,Northern Mariana Islands,
"Rota, Spain",Rota,36.6263,-6.36301,罗塔,Rota,5,ES,西班牙,Spain,auto translate
"Roxas City, Philippines",Roxas City,11.5833,122.75,罗哈斯,Roxas City,5,PH,菲律宾,Philippines,
"Roxas, Philippines",Roxas,12.5864,121.528,罗哈斯,Roxas City,5,PH,菲律宾,Philippines,
"Rørvik, Norway",Rørvik,64.8621,11.2373,勒尔维克,Rørvik,5,NO,挪威,Norway,auto translate
"Rurutu, French Polynesia",Rurutu,-22.4513,-151.343,鲁鲁土岛,Rurutu,5,PF,法属波利尼西亚,French Polynesia,
"Saeby, Denmark",Saeby,57.3308,10.5166,赛比,Sæby,5,DK,丹麦,Denmark,auto translate
"Sagunto, Spain",Sagunto,39.6626,-0.210386,萨贡托港,Port de Sagunt,5,ES,西班牙,Spain,
"Saint Barthelemy, Saint Barthélemy",Saint Barthelemy,17.9001,-62.8334,古斯塔维亚,Gustavia,5,BL,圣巴泰勒米,Saint Barthélemy,auto translate
"Saint-Hilaire-de-Riez, France",Saint-Hilaire-de-Riez,46.694,-1.96831,圣伊莱尔－德里耶,Saint-Hilaire-de-Riez,5,FR,法国,France,
"Saint John, NB, Canada",Saint John,45.2734,-66.0641,圣约翰,California,5,CA,加拿大,Canada,
"Saint Martin, Saint Martin",Saint Martin,18.0928,-63.0501,马里戈特,Marigot,5,MF,法属圣马丁,Saint Martin (French part),
"Saint Paul, Réunion",Saint Paul,-21.0002,55.2791,圣保罗,São Paulo,5,RE,留尼汪,Réunion,
"Saint-Pierre, Saint Pierre and Miquelon",Saint-Pierre,46.7758,-56.1806,圣彼得岛,Saint-Pierre,5,PM,圣皮埃尔和密克隆,Saint Pierre and Miquelon,auto translate
"Sainte-Anne-des-Monts, QC, Canada",Sainte-Anne-des-Monts,49.1238,-66.4901,圣安娜德蒙,Sainte-Anne-des-Monts,5,CA,加拿大,Canada,
"Sainte Marie, Réunion",Sainte Marie,-20.8974,55.5499,圣玛丽,Sainte-Marie,5,RE,留尼汪,Réunion,auto translate
"Saipan, Northern Mariana Islands",Saipan,15.1777,145.751,卡皮托尔希尔,Capitol Hill,5,MP,北马里亚纳群岛,Northern Mariana Islands,
"Sakra Island, Singapore",Sakra Island,1.25892,103.704,新加坡,Singapore,5,SG,新加坡,Singapore,
"Sal Rei, Cape Verde",Sal Rei,16.1772,-22.919,萨尔雷,Sal Rei,5,CV,佛得角,Cape Verde,
"Salalah, Oman",Salalah,17.0959,54.148,塞拉莱,Salalah,5,OM,阿曼,Oman,
"Salinas, Ecuador",Salinas,-2.22849,-81.0091,萨利纳斯,Salinas,5,EC,厄瓜多尔,Ecuador,
"Saltcoats, United Kingdom",Saltcoats,55.6376,-4.78352,索尔特科茨,Saltcoats,5,GB,英国,United Kingdom,
"Salvador, Brazil",Salvador,-12.97,-38.5045,萨尔瓦多,El Salvador,5,BR,巴西,Brazil,
"Samandag, Turkey",Samandag,36.0823,35.9993,萨曼达厄,Samandağ,2,TR,土耳其,Turkey,
"San Andres, Colombia",San Andres,12.5847,-81.7006,圣安德烈斯,San Andrés,5,CO,哥伦比亚,Colombia,
"San Carlos, Philippines",San Carlos,10.4837,123.413,圣卡洛斯,Philippines,5,PH,菲律宾,Philippines,
"San Jose de Buenavista, Philippines",San Jose de Buenavista,10.7488,121.941,圣何塞,San Jose,5,PH,菲律宾,Philippines,
"San Jose, Philippines",San Jose,12.3626,121.05,圣琼斯,San Jose City,5,PH,菲律宾,Philippines,
"San Juan, Philippines",San Juan,13.8099,121.449,圣胡安,Philippines,5,PH,菲律宾,Philippines,
"San Juan, PR, United States",San Juan,18.4658,-66.1067,圣胡安,San Juan,5,PR,波多黎各,Puerto Rico,
"San Luis Obispo, CA, United States",San Luis Obispo,35.285,-120.663,圣路易斯－奥比斯保,San Luis Obispo,5,US,美国,United States,
"San Pedro, Belize",San Pedro,17.911,-87.9783,圣佩德罗镇,San Pedro,5,BZ,伯利兹,Belize,
"San Pedro de la Paz, Chile",San Pedro de la Paz,-36.8317,-73.109,圣佩德罗德拉帕斯,San Pedro de la Paz,5,CL,智利,Chile,
"San Sebastian de la Gomera, Canary Islands, Spain",San Sebastian de la Gomera,28.088,-17.1082,戈梅拉岛圣塞瓦斯蒂安,San Sebastián de La Gomera,5,ES,西班牙,Spain,
"Sanana, Indonesia",Sanana,-2.20145,125.937,苏拉群岛,Kepulauan Sula Regency,2,ID,印度尼西亚,Indonesia,
"Sand Point, AK, United States",Sand Point,55.3415,-160.496,桑德波因特,Sandpoint,5,US,美国,United States,
"Sandgarth, United Kingdom",Sandgarth,59.0252,-2.8362,巴尔弗,Balfour,5,GB,英国,United Kingdom,
"Sandnessjøen, Norway",Sandnessjøen,66.0215,12.6315,桑内舍恩,Sandnessjøen,5,NO,挪威,Norway,
"Sandwick, United Kingdom",Sandwick,59.996,-1.23869,桑威克,Sandwick,5,GB,英国,United Kingdom,
"Sandymount, Ireland",Sandymount,53.3314,-6.21545,都柏林,Dublin,5,IE,爱尔兰,Ireland,
"Sangatta, Indonesia",Sangatta,0.324519,117.535,东库台县,East Kutai Regency,2,ID,印度尼西亚,Indonesia,
"Santa Cruz de La Palma, Canary Islands, Spain",Santa Cruz de La Palma,28.6632,-17.7652,下布雷尼亚,Breña Baja,5,ES,西班牙,Spain,
"Santa Magdalena, Philippines",Santa Magdalena,12.6453,124.107,圣马格达莱娜,Santa Magdalena,5,PH,菲律宾,Philippines,
"Santa Marta, Colombia",Santa Marta,11.242,-74.2053,圣玛尔塔,Santa Marta,5,CO,哥伦比亚,Colombia,
"Santa Ponsa, Spain",Santa Ponsa,39.5,2.46277,卡尔维亚,Calvià,5,ES,西班牙,Spain,
"Santiago de Cuba, Cuba",Santiago de Cuba,20.0288,-75.829,圣地亚哥,San Diego,5,CU,古巴,Cuba,
"Santo Domingo, Dominican Republic",Santo Domingo,18.5,-69.9833,圣多明戈,Santo Domingo,5,DO,多米尼加,Dominican Republic,
"Santos, Brazil",Santos,-23.9618,-46.3281,桑托斯,Santos,5,BR,巴西,Brazil,auto translate
"Sanur, Indonesia",Sanur,-8.69505,115.26,登巴萨,Denpasar,5,ID,印度尼西亚,Indonesia,
"Sao Filipe, Cape Verde",Sao Filipe,14.8971,-24.5009,圣菲利普,Sao Filipe,5,CV,佛得角,Cape Verde,
"Sao Mateus, Portugal",Sao Mateus,38.4323,-28.4612,圣马特乌什,São Mateus,5,PT,葡萄牙,Portugal,
"Sao Tome, Sao Tome and Principe",Sao Tome,0.333291,6.7333,圣多美,São Tomé,5,ST,圣多美和普林西比,Sao Tome and Principe,
"Sape, Indonesia",Sape,-8.5056,118.976,比马,Bima,2,ID,印度尼西亚,Indonesia,
"Sapporo, Japan",Sapporo,43.0621,141.354,札幌市,Sapporo,5,JP,日本,Japan,
"Saraemee, Indonesia",Saraemee,-8.79693,118.712,比马,Bima,2,ID,印度尼西亚,Indonesia,
"Sardina, Canary Islands, Spain",Sardina,28.1499,-15.694,萨尔迪纳,Gáldar,5,ES,西班牙,Spain,auto translate
"Sarmi, Indonesia",Sarmi,-2.17524,139.353,萨米,Lapland,2,ID,印度尼西亚,Indonesia,
"Sasanlagu, Rota, Northern Mariana Islands",Sasanlagu,14.1449,145.134,宋宋,Songsong,5,MP,北马里亚纳群岛,Northern Mariana Islands,
"Sassnitz, Germany",Sassnitz,54.5196,13.6487,萨斯尼茨,Sassnitz,5,DE,德国,Germany,
"Savona, Italy",Savona,44.3058,8.48379,萨沃纳,Savona,5,IT,意大利,Italy,
"Sayward, BC, Canada",Sayward,50.3843,-125.959,塞沃德,Sayward,5,CA,加拿大,Canada,
"Schoelcher, Martinique",Schoelcher,14.629,-61.1121,舍尔谢,Schœlcher,5,MQ,马提尼克,Martinique,
"Schooner Bight, Colombia",Schooner Bight,12.5511,-81.73,圣安德烈斯,San Andrés,2,CO,哥伦比亚,Colombia,
"Scoor, United Kingdom",Scoor,56.2917,-6.1778,伯内森,Bunessan,5,GB,英国,United Kingdom,
"Seba, Indonesia",Seba,-10.4578,121.88,萨武-赖朱阿县,Sabu Raijua Regency,2,ID,印度尼西亚,Indonesia,
"Seixal, Portugal",Seixal,38.6423,-9.10739,塞沙尔,Seixal,5,PT,葡萄牙,Portugal,
"Sendai, Japan",Sendai,38.3144,140.758,仙台市,Sendai,5,JP,日本,Japan,
"Senggigi, Indonesia",Senggigi,-8.48546,116.047,西龙目县,West Lombok Regency,2,ID,印度尼西亚,Indonesia,
"Sennen Cove, United Kingdom",Sennen Cove,50.0761,-5.69875,彭赞思,Penzance,6,GB,英国,United Kingdom,
"Serwaru, Indonesia",Serwaru,-8.15812,127.691,西南马鲁古县,Maluku Barat Daya Regency,2,ID,印度尼西亚,Indonesia,
"Ses Covetes, Spain",Ses Covetes,39.3545,2.97097,坎波斯,Ses Covetes,5,ES,西班牙,Spain,auto translate
"Sesimbra, Portugal",Sesimbra,38.4427,-9.10275,塞辛布拉,Sesimbra,5,PT,葡萄牙,Portugal,
"Seward, AK, United States",Seward,60.1123,-149.443,西沃德,Seward,5,US,美国,United States,
"Seydisfjordur, Iceland",Seydisfjordur,65.2513,-14.018,塞济斯菲厄泽,Seydisfjordur,5,IS,冰岛,Iceland,
"Shanghai, China",Shanghai,31.2476,121.473,上海市,Shanghai,5,CN,中国,China,
"Shantou, China",Shantou,23.3546,116.675,汕头市,Shantou,5,CN,中国,China,
"Sharjah, United Arab Emirates",Sharjah,25.3523,55.3922,夏尔迦,Sharjah,5,AE,阿联酋,United Arab Emirates,
"Shearwater, BC, Canada",Shearwater,52.1479,-128.091,欧申福尔斯,Ocean Falls,5,CA,加拿大,Canada,
"Shima, Japan",Shima,34.3369,136.874,志摩市,Shima,5,JP,日本,Japan,
"Shirley, NY, United States",Shirley,40.8003,-72.8722,雪莉,United States,5,US,美国,United States,
"Siargao Island, Philippines",Siargao Island,9.85521,126.053,皮拉尔,Pilar,5,PH,菲律宾,Philippines,
"Sibolga, Indonesia",Sibolga,1.74781,98.7866,实武牙,Sibolga,2,ID,印度尼西亚,Indonesia,
"Sihanoukville, Cambodia",Sihanoukville,10.63,103.507,西哈努克城,Preah Sihanouk,5,KH,柬埔寨,Cambodia,
"Simrishamn, Sweden",Simrishamn,55.5565,14.3499,锡姆里斯港,Simrishamn,5,SE,瑞典,Sweden,
"Sines, Portugal",Sines,37.9572,-8.8696,锡尼什,Sines,5,PT,葡萄牙,Portugal,
"Singapore, Singapore",Singapore,1.29387,103.853,新加坡,Singapore,5,SG,新加坡,Singapore,
"Singkawang, Indonesia",Singkawang,0.906014,108.987,山口洋,Singkawang,5,ID,印度尼西亚,Indonesia,
"Sirte, Libya",Sirte,31.2053,16.5883,苏尔特,Surt,5,LY,利比亚,Libyan Arab Jamahiriya,auto translate
"Sisimiut, Greenland",Sisimiut,66.9395,-53.6734,锡西米尤特,Sisimiut,5,GL,格陵兰,Greenland,
"Sitia, Greece",Sitia,35.207,26.1072,锡蒂亚,Sitia,5,GR,希腊,Greece,
"Sitio, Brazil",Sitio,-11.8467,-37.5705,孔迪,Conde,2,BR,巴西,Brazil,
"Sitka, AK, United States",Sitka,57.0529,-135.334,锡特卡,Sitka,5,US,美国,United States,
"Sizewell, United Kingdom",Sizewell,52.2071,1.62029,赛兹韦尔,Sizewell,5,GB,英国,United Kingdom,
"Skagway, AK, United States",Skagway,59.4583,-135.314,斯卡圭,Skagway,5,US,美国,United States,
"Skelberry, United Kingdom",Skelberry,60.3514,-1.14147,勒威克,Lerwick,5,GB,英国,United Kingdom,
"Skewjack, United Kingdom",Skewjack,50.0636,-5.67507,彭赞思,Penzance,6,GB,英国,United Kingdom,
"Smith Island, BC, Canada",Smith Island,54.1423,-130.278,鲁珀特王子港,Prince Rupert,5,CA,加拿大,Canada,
"Snug Cove, BC, Canada",Snug Cove,49.3801,-123.338,鲍恩岛,Bowen Island,5,CA,加拿大,Canada,
"São Mateus, Brazil",São Mateus,-18.7167,-39.8591,圣马特乌斯,São Mateus,5,BR,巴西,Brazil,
"Sochi, Russia",Sochi,43.6155,39.7258,索契,Sochi,5,RU,俄罗斯,Russian Federation,
"Sofifi, Indonesia",Sofifi,0.734974,127.561,蒂多雷,Tidore,2,ID,印度尼西亚,Indonesia,
"Sorong, Indonesia",Sorong,-0.882072,131.295,索龙,Sorong,5,ID,印度尼西亚,Indonesia,
"Southport, United Kingdom",Southport,53.6479,-3.00637,绍斯波特,Southport,5,GB,英国,United Kingdom,
"Soyo, Angola",Soyo,-6.14103,12.3521,索约,Soyo,5,AO,安哥拉,Angola,
"Spanish River Park, FL, United States",Spanish River Park,26.3781,-80.0677,博卡拉顿,Boca Raton,5,US,美国,United States,
"Spencer Beach, HI, United States",Spencer Beach,20.0231,-155.822,怀梅阿,Waimea,5,US,美国,United States,
"Sriracha, Thailand",Sriracha,13.1744,100.931,是拉差,Si Racha,5,TH,泰国,Thailand,
"St. Louis, Saint Martin",St. Louis,18.0899,-63.0781,马里戈特,Marigot,5,MF,法属圣马丁,Saint Martin (French part),
"St. Paul's Bay, Malta",St. Paul's Bay,35.9505,14.4156,圣保罗湾城,St. Paul's Bay,5,MT,马耳他,Malta,
"Stanley, TAS, Australia",Stanley,-40.7604,145.294,斯坦利,Stanley,5,AU,澳大利亚,Australia,
"Stavanger, Norway",Stavanger,58.9708,5.73079,斯塔万格,Stavanger,5,NO,挪威,Norway,
"Stintino, Italy",Stintino,40.9481,8.22899,斯廷蒂诺,Stintino,5,IT,意大利,Italy,
"Stockholm, Sweden",Stockholm,59.3323,18.0628,斯德哥尔摩,Stockholm,5,SE,瑞典,Sweden,
"Stories Beach, BC, Canada",Stories Beach,49.9196,-125.186,坎贝尔里弗,Campbell River,5,CA,加拿大,Canada,
"Strömstad, Sweden",Strömstad,58.9382,11.179,斯特伦斯塔德,Strömstad,5,SE,瑞典,Sweden,
"Suemlaki, Indonesia",Suemlaki,-8.05223,131.213,西东南马鲁古县,Tanimbar Islands Regency,2,ID,印度尼西亚,Indonesia,
"Suez, Egypt",Suez,29.9726,32.53,苏伊士,Suez,5,EG,埃及,Egypt,
"Sugar Dock, Saipan, Northern Mariana Islands",Sugar Dock,15.1518,145.7,查兰卡诺亚,Chalan Kanoa,5,MP,北马里亚纳群岛,Northern Mariana Islands,
"Sumbawa Besar, Indonesia",Sumbawa Besar,-8.84115,118.082,松巴哇县,Sumbawa Regency,2,ID,印度尼西亚,Indonesia,
"Sumburgh, United Kingdom",Sumburgh,59.8691,-1.2871,萨姆堡,Sumburgh,5,GB,英国,United Kingdom,
"Sungai Kakap, Indonesia",Sungai Kakap,-0.0670559,109.183,古布拉雅县,Kubu Raya Regency,2,ID,印度尼西亚,Indonesia,
"Sungailiat, Indonesia",Sungailiat,-1.8515,106.132,双溪利亚,Sungai Liat,5,ID,印度尼西亚,Indonesia,
"Sungsang, Indonesia",Sungsang,-2.29531,104.874,万由辛县,Banyuasin Regency,2,ID,印度尼西亚,Indonesia,
"Supiori, Indonesia",Supiori,-0.729511,135.639,苏皮奥里县,Supiori Regency,2,ID,印度尼西亚,Indonesia,
"Surabaya, Indonesia",Surabaya,-7.25858,112.747,苏腊巴亚,Surabaya,5,ID,印度尼西亚,Indonesia,
"Surigao City, Philippines",Surigao City,9.78271,125.487,苏里高,Surigao City,5,PH,菲律宾,Philippines,
"Surville, France",Surville,49.2833,-1.65002,拉艾,La Haye,5,FR,法国,France,
"Suva, Fiji",Suva,-18.1236,178.437,苏瓦,Suva,5,FJ,斐济,Fiji,
"Sventoji, Lithuania",Sventoji,56.0283,21.0824,帕兰加,Palanga,5,LT,立陶宛,Lithuania,
"Swakopmund, Namibia",Swakopmund,-22.6783,14.5281,斯瓦科普蒙德,Swakopmund,5,NA,纳米比亚,Namibia,
"Sydney Mines, NS, Canada",Sydney Mines,46.2293,-60.2241,悉尼矿区,Sydney Mines,5,CA,加拿大,Canada,
"Sydney, NSW, Australia",Sydney,-33.8697,151.207,悉尼市,Sydney,5,AU,澳大利亚,Australia,
"Sylt, Germany",Sylt,54.8985,8.38337,叙尔特岛,Sylt,5,DE,德国,Germany,
"Symbister, United Kingdom",Symbister,60.341,-1.02492,辛比斯特,Symbister,5,GB,英国,United Kingdom,
"Syros, Greece",Syros,37.4416,24.936,埃尔穆波利斯,Ermoupoli,5,GR,希腊,Greece,
"Taba, Egypt",Taba,29.4926,34.8949,塔巴,Taba,5,EG,埃及,Egypt,auto translate
"Tadine, New Caledonia",Tadine,-21.5481,167.88,塔迪讷,North Carolina,5,NC,新喀里多尼亚,New Caledonia,
"Tagbilaran, Philippines",Tagbilaran,9.67542,123.878,塔比拉兰,Tagbilaran City,5,PH,菲律宾,Philippines,
"Tahuna, Indonesia",Tahuna,3.61111,125.486,桑义赫群岛,Sangihe Islands Regency,2,ID,印度尼西亚,Indonesia,
"Tainan, Taiwan",Tainan,22.9972,120.181,台南,Tainan City,5,TW,中国台湾,Taiwan,
"Taipa, China",Taipa,22.1561,113.561,澳门,Avenida Doutor Sun Yat-Sen,5,MO,中国澳门,Macao,
"Takahagi, Japan",Takahagi,36.7131,140.718,高萩市,Takahagi,5,JP,日本,Japan,
"Takapuna, New Zealand",Takapuna,-36.7878,174.768,奥克兰,Auckland,5,NZ,新西兰,New Zealand,
"Takesung, Indonesia",Takesung,-3.88283,114.667,塔纳劳特县,Tanah Laut Regency,2,ID,印度尼西亚,Indonesia,
"Taliabu, Indonesia",Taliabu,-1.82684,124.774,塔利亚布岛,Taliabu Island,2,ID,印度尼西亚,Indonesia,
"Talisay City, Philippines",Talisay City,10.7394,122.968,塔利赛,Talisay City,5,PH,菲律宾,Philippines,
"Talisay, Philippines",Talisay,10.252,123.839,塔利赛,Talisay City,5,PH,菲律宾,Philippines,
"Tallinn, Estonia",Tallinn,59.4362,24.7524,塔林,Tallinn,5,EE,爱沙尼亚,Estonia,
"Tanah Merah, Singapore",Tanah Merah,1.32726,103.947,新加坡,Singapore,5,SG,新加坡,Singapore,
"Tananger, Norway",Tananger,58.9362,5.5741,塔南厄尔,Tananger,5,NO,挪威,Norway,
"Tanguisson Point, Guam",Tanguisson Point,13.5491,144.809,德德多,Dededo,5,GU,关岛,Guam,
"Tanjung Bemban, Indonesia",Tanjung Bemban,1.17321,104.133,巴淡岛,Batam,5,ID,印度尼西亚,Indonesia,
"Tanjung Pakis, Indonesia",Tanjung Pakis,-5.98126,107.121,加拉璜,Karawang,2,ID,印度尼西亚,Indonesia,
"Tanjung Pinggir, Indonesia",Tanjung Pinggir,1.13348,103.96,巴淡岛,Batam,5,ID,印度尼西亚,Indonesia,
"Tanjung Selor, Indonesia",Tanjung Selor,2.57203,117.819,布隆岸县,Bulungan Regency,2,ID,印度尼西亚,Indonesia,
"Tanshui, Taiwan",Tanshui,25.1816,121.463,台北市,Taipei City,5,TW,中国台湾,Taiwan,
"Taoyuan, Taiwan",Taoyuan,24.9889,121.311,桃园,Taoyuan,5,TW,中国台湾,Taiwan,
"Tarahales, Spain",Tarahales,28.0964,-15.4507,拉斯帕尔马斯-大加那利,Municipality of Las Palmas,5,ES,西班牙,Spain,
"Tarakan, Indonesia",Tarakan,3.32735,117.579,打拉根,Tarakan,5,ID,印度尼西亚,Indonesia,
"Tarifa, Spain",Tarifa,36.0143,-5.60445,塔里法,Tarifa,5,ES,西班牙,Spain,
"Tarrafal—Santiago, Cape Verde",Tarrafal—Santiago,15.2768,-23.7511,塔拉法尔,Tarrafal,5,CV,佛得角,Cape Verde,
"Tarrafal—Sao Nicolau, Cape Verde",Tarrafal—Sao Nicolau,16.5659,-24.3572,塔拉法尔,Tarrafal,5,CV,佛得角,Cape Verde,
"Tartous, Syria",Tartous,34.8917,35.8978,塔尔图斯,Tartus‎,5,SY,叙利亚,Syrian Arab Republic,
"Taytay, Philippines",Taytay,10.8197,119.5,泰泰,Taytay,5,PH,菲律宾,Philippines,
"Tebingtinggi Island, Indonesia",Tebingtinggi Island,0.93256,102.667,丹戎,Tebingtinggi Island,4,ID,印度尼西亚,Indonesia,
"Tel Aviv, Israel",Tel Aviv,32.045,34.7697,特拉维夫,Tel Aviv-Yafo,5,IL,以色列,Israel,
"Teluk, Indonesia",Teluk,-2.20237,133.482,宾图尼湾县,Teluk Bintuni Regency,2,ID,印度尼西亚,Indonesia,
"Terante, Indonesia",Terante,0.795809,127.361,特尔纳特,Ternate,2,ID,印度尼西亚,Indonesia,
"Terempa, Indonesia",Terempa,3.20711,106.211,阿南巴斯群岛,Anambas Islands Regency,2,ID,印度尼西亚,Indonesia,
"Termoli, Italy",Termoli,42.0005,14.9953,泰尔莫利,Termoli,5,IT,意大利,Italy,
"Ternate, Indonesia",Ternate,0.789852,127.375,德尔纳特,Ternate,5,ID,印度尼西亚,Indonesia,
"Terre Rouge, Mauritius",Terre Rouge,-20.0778,57.5101,潘托皮芒,Balaclava,5,MU,毛里求斯,Mauritius,auto translate
"Thanlyin, Myanmar",Thanlyin,16.7587,96.2482,沙廉,Thanlyin,5,MM,缅甸,Myanmar,
"The Valley, Anguilla",The Valley,18.2174,-63.0572,峡谷,The Valley,5,AI,安圭拉,Anguilla,auto translate
"Thorlakshofn, Iceland",Thorlakshofn,63.8563,-21.3781,索劳克斯赫本,Þorlákshöfn,5,IS,冰岛,Iceland,
"Thorpeness, United Kingdom",Thorpeness,52.1808,1.61306,索普尼斯,Thorpeness,5,GB,英国,United Kingdom,
"Tiakur, Indonesia",Tiakur,-8.15033,127.788,西南马鲁古县,Maluku Barat Daya Regency,2,ID,印度尼西亚,Indonesia,
"Tidore, Indonesia",Tidore,0.674005,127.404,蒂多雷,Tidore,2,ID,印度尼西亚,Indonesia,
"Tijuana, Mexico",Tijuana,32.5308,-117.038,提华纳,Tijuana,5,MX,墨西哥,Mexico,
"Tiksi, Russia",Tiksi,71.6375,128.865,季克西,Tiksi,5,RU,俄罗斯,Russian Federation,
"Timika, Indonesia",Timika,-4.55031,136.89,蒂米卡,Timika,5,ID,印度尼西亚,Indonesia,
"Timpaki, Greece",Timpaki,35.0716,24.7684,廷巴基翁,Tympaki,5,GR,希腊,Greece,
"Tinocas, Canary Islands, Spain",Tinocas,28.1344,-15.4877,阿鲁卡斯,Arucas,5,ES,西班牙,Spain,
"Tinos, Greece",Tinos,37.5387,25.1605,蒂诺斯,Tinos,5,GR,希腊,Greece,
"Titahi Bay, New Zealand",Titahi Bay,-41.1058,174.838,波里鲁阿,Porirua,5,NZ,新西兰,New Zealand,
"Tjele, Denmark",Tjele,56.5108,9.61169,切勒,Tjele,5,DK,丹麦,Denmark,auto translate
"Tlell, BC, Canada",Tlell,53.5625,-131.93,特莱尔,Tlell,5,CA,加拿大,Canada,
"Toamasina, Madagascar",Toamasina,-18.1462,49.4003,塔马塔夫,Toamasina,5,MG,马达加斯加,Madagascar,
"Tobelo, Indonesia",Tobelo,1.71458,127.968,北哈马黑拉县,North Halmahera Regency,2,ID,印度尼西亚,Indonesia,
"Tobermory, United Kingdom",Tobermory,56.6218,-6.07028,托伯莫里,Tobermory,5,GB,英国,United Kingdom,
"Toco, Trinidad and Tobago",Toco,10.8311,-60.9497,托科,Toco,5,TT,特立尼达和多巴哥,Trinidad and Tobago,auto translate
"Tocopilla, Chile",Tocopilla,-22.0884,-70.1977,托科皮亚,Tocopilla,5,CL,智利,Chile,
"Tofol, Micronesia",Tofol,5.3279,163.008,托福尔,Tofol,5,FM,密克罗尼西亚联邦,Micronesia,
"Toledo, Philippines",Toledo,10.3762,123.635,托莱多,Toledo,5,PH,菲律宾,Philippines,
"Toliara, Madagascar",Toliara,-23.3548,43.6631,图莱亚尔,Toliara,5,MG,马达加斯加,Madagascar,
"Tong Fuk, China",Tong Fuk,22.2274,113.932,香港,Hong Kong,5,HK,中国香港,Hong Kong,
"Topolobampo, Mexico",Topolobampo,25.6007,-109.05,托波洛万波,Topolobampo,5,MX,墨西哥,Mexico,
"Toronto, ON, Canada",Toronto,43.6486,-79.3853,多伦多,Toronto,5,CA,加拿大,Canada,
"Torreguadiaro, Spain",Torreguadiaro,36.294,-5.2752,圣罗克,San Roque,5,ES,西班牙,Spain,
"Torshavn, Faroe Islands",Torshavn,62.0175,-6.77184,托尔斯港,Tórshavn,5,FO,法罗群岛,Faroe Islands,
"Tortel, Chile",Tortel,-47.8012,-73.5369,托尔特尔,Tortel,5,CL,智利,Chile,
"Totness, Suriname",Totness,5.88663,-56.3754,托特内斯,Totness,5,SR,苏里南,Suriname,
"Toucheng, Taiwan",Toucheng,24.8636,121.801,宜兰县,Yilan County,2,TW,中国台湾,Taiwan,
"Toulon, France",Toulon,43.1253,5.93034,土伦,Toulon,5,FR,法国,France,
"Towale, Indonesia",Towale,-0.711935,119.666,栋加拉,Banawa Tengah,2,ID,印度尼西亚,Indonesia,
"Toweli, Indonesia",Toweli,-1.14247,119.388,北马穆朱县,Pasangkayu Regency,2,ID,印度尼西亚,Indonesia,
"Toyohashi, Japan",Toyohashi,34.7691,137.392,丰桥市,Toyohashi,5,JP,日本,Japan,
"Trablous, Lebanon",Trablous,34.4394,35.8591,的黎波里,Tripoli,5,LB,黎巴嫩,Lebanon,
"Trapani, Italy",Trapani,38.0183,12.5136,特拉帕尼,Trapani,5,IT,意大利,Italy,
"Tripoli, Lebanon",Tripoli,34.4394,35.8591,的黎波里,Tripoli,5,LB,黎巴嫩,Lebanon,
"Tripoli, Libya",Tripoli,32.8773,13.1873,的黎波里,Tripoli,5,LY,利比亚,Libyan Arab Jamahiriya,
"Trondheim, Norway",Trondheim,63.431,10.3921,特隆赫姆,Trondheim,5,NO,挪威,Norway,
"Troon, United Kingdom",Troon,55.5413,-4.65993,特伦,Troon,5,GB,英国,United Kingdom,auto translate
"Trujillo, Honduras",Trujillo,15.9152,-85.9548,特鲁希略,Trujillo,5,HN,洪都拉斯,Honduras,auto translate
"Tseung Kwan O, China",Tseung Kwan O,22.3183,114.259,香港,Hong Kong,5,HK,中国香港,Hong Kong,
"Tétouan, Morocco",Tétouan,35.5659,-5.39181,得土安,Tetouan,5,MA,摩洛哥,Morocco,
"Tual, Indonesia",Tual,-5.62658,132.752,图阿尔,Tual,5,ID,印度尼西亚,Indonesia,
"Tuas, Singapore",Tuas,1.33865,103.646,新加坡,Singapore,5,SG,新加坡,Singapore,
"Tuborg, Denmark",Tuborg,55.722,12.5456,哥本哈根,Copenhagen,5,DK,丹麦,Denmark,
"Tubruq, Libya",Tubruq,32.0796,23.9603,图卜鲁格,Tobruk,5,LY,利比亚,Libyan Arab Jamahiriya,
"Tuckerton, NJ, United States",Tuckerton,39.6039,-74.3379,塔克顿,Tuckerton,5,US,美国,United States,
"Tulum, Mexico",Tulum,20.2126,-87.4636,图卢姆,Tulum,5,MX,墨西哥,Mexico,
"Tumon Bay, Guam",Tumon Bay,13.5136,144.801,塔穆宁,Tamuning,5,GU,关岛,Guam,
"Tungku, Brunei",Tungku,4.92677,114.886,斯里巴加湾,Bandar Seri Begawan,5,BN,文莱,Brunei Darussalam,
"Turku, Finland",Turku,60.4493,22.2592,图尔库,Turku,5,FI,芬兰,Finland,
"Tuticorine, India",Tuticorine,8.8022,78.1451,杜蒂戈林,Thoothukudi,5,IN,印度,India,
"Tutuyan, Indonesia",Tutuyan,0.761437,124.575,东博朗蒙贡多县,East Bolaang Mongondow Regency,2,ID,印度尼西亚,Indonesia,
"Tympaki, Greece",Tympaki,35.0714,24.7683,廷巴基翁,Tympaki,5,GR,希腊,Greece,
"Umag, Croatia",Umag,45.4331,13.5202,乌马格,Umag,5,HR,克罗地亚,Croatia,
"Umbogintwini, South Africa",Umbogintwini,-30.0217,30.9016,阿曼济姆托蒂,Amanzimtoti,5,ZA,南非,South Africa,
"Umeå, Sweden",Umeå,63.8259,20.263,于默奥,Umeå,5,SE,瑞典,Sweden,
"Umiujaq, QC, Canada",Umiujaq,56.5516,-76.5471,厄缪亚克,Umiujaq,5,CA,加拿大,Canada,
"Unalaska, AK, United States",Unalaska,53.8845,-166.533,乌纳拉斯卡,Unalaska,5,US,美国,United States,
"Union Island, Saint Vincent and the Grenadines",Union Island,12.6114,-61.4432,阿什顿,Ashton,5,VC,圣文森特和格林纳丁斯,Saint Vincent and the Grenadines,auto translate
"Ust-Bolsheretsk, Russia",Ust-Bolsheretsk,52.8124,156.287,乌斯季博利舍列茨克,Ust'-Bol'sheretsk,5,RU,俄罗斯,Russian Federation,
"Ustica, Italy",Ustica,38.7099,13.192,乌斯蒂卡,Ustica,5,IT,意大利,Italy,
"Utqiaġvik, AK, United States",Utqiaġvik,71.2906,-156.789,巴罗,Utqiagvik,5,US,美国,United States,
"Uturoa, French Polynesia",Uturoa,-16.7309,-151.443,乌图罗阿,Uturoa,5,PF,法属波利尼西亚,French Polynesia,
"Vaasa, Finland",Vaasa,63.0952,21.6164,瓦萨,Vaasa,5,FI,芬兰,Finland,auto translate
